[
  {
    "installation_id": 1,
    "client_name": "CES de Yaoundé 1",
    "client_type": "school",
    "city": "Yaoundé",
    "region": "Centre",
    "gps_lat": 3.31963,
    "gps_lon": 10.969591,
    "install_date": "2022-03-31",
    "tariff_plan": "Standard",
    "status": "active",
    "distributor_id": 2,
    "panel_capacity_wp": 1000,
    "battery_capacity_wh": 4000,
    "num_appliances": 4
  },
  {
    "installation_id": 2,
    "client_name": "Centre de Santé de Mbanga",
    "client_type": "health_center",
    "city": "Mbanga",
    "region": "Littoral",
    "gps_lat": null,
    "gps_lon": null,
    "install_date": "2020-12-17",
    "tariff_plan": "Standard",
    "status": "active",
    "distributor_id": 28,
    "panel_capacity_wp": 750,
    "battery_capacity_wh": 4000,
    "num_appliances": 2
  },
  {
    "installation_id": 3,
    "client_name": "jacques mvondo",
    "client_type": "residential",
    "city": "Tignère",
    "region": "Adamaoua",
    "gps_lat": 7.016788,
    "gps_lon": 12.73961,
    "install_date": "19-10-2024",
    "tariff_plan": "Basic",
    "status": "active",
    "distributor_id": 13,
    "panel_capacity_wp": 150,
    "battery_capacity_wh": 600,
    "num_appliances": 15
  },
  {
    "installation_id": 4,
    "client_name": "adamou fouda",
    "client_type": "residential",
    "city": "Mbalmayo",
    "region": "Centre",
    "gps_lat": 3.537431,
    "gps_lon": 11.306179,
    "install_date": "10/01/2023",
    "tariff_plan": "Standard",
    "status": "active",
    "distributor_id": 18,
    "panel_capacity_wp": 300,
    "battery_capacity_wh": 4000,
    "num_appliances": 10
  },
  {
    "installation_id": 5,
    "client_name": "Brigitte Boutique",
    "client_type": "sme",
    "city": "Yaoundé",
    "region": "Centre",
    "gps_lat": 4.017863,
    "gps_lon": 10.794321,
    "install_date": "21/05/2023",
    "tariff_plan": "Basic",
    "status": "active",
    "distributor_id": 30,
    "panel_capacity_wp": 1000,
    "battery_capacity_wh": 400,
    "num_appliances": 3
  },
  {
    "installation_id": 6,
    "client_name": "josiane kuate",
    "client_type": "residential",
    "city": "Dschang",
    "region": "Ouest",
    "gps_lat": 6.215011,
    "gps_lon": 10.913436,
    "install_date": "22/02/2022",
    "tariff_plan": "Basic",
    "status": "churned",
    "distributor_id": 19,
    "panel_capacity_wp": 200,
    "battery_capacity_wh": 1000,
    "num_appliances": 13
  },
  {
    "installation_id": 7,
    "client_name": "KEVIN KUATE",
    "client_type": "residential",
    "city": "Obala",
    "region": "Centre",
    "gps_lat": 3.265261,
    "gps_lon": 11.512283,
    "install_date": "2020-10-08",
    "tariff_plan": "Standard",
    "status": "active",
    "distributor_id": 18,
    "panel_capacity_wp": 300,
    "battery_capacity_wh": 4000,
    "num_appliances": 9
  },
  {
    "installation_id": 8,
    "client_name": "Centre de Santé Intégré de Edéa",
    "client_type": "health_center",
    "city": "Edéa",
    "region": "Littoral",
    "gps_lat": 3.748738,
    "gps_lon": 9.732109,
    "install_date": "2020/06/08",
    "tariff_plan": "Basic",
    "status": "active",
    "distributor_id": 4,
    "panel_capacity_wp": 300,
    "battery_capacity_wh": 400,
    "num_appliances": 8
  },
  {
    "installation_id": 9,
    "client_name": "Pauline NGUIMO",
    "client_type": "residential",
    "city": "Bafang",
    "region": "Ouest",
    "gps_lat": 6.173198,
    "gps_lon": 11.051724,
    "install_date": "30-05-2024",
    "tariff_plan": "Custom",
    "status": "active",
    "distributor_id": 21,
    "panel_capacity_wp": 200,
    "battery_capacity_wh": 4000,
    "num_appliances": 10
  },
  {
    "installation_id": 10,
    "client_name": "Centre de Santé de Bafang",
    "client_type": "health_center",
    "city": "Bafang",
    "region": "Ouest",
    "gps_lat": 4.742364,
    "gps_lon": 10.140529,
    "install_date": "2023/07/24",
    "tariff_plan": "Basic",
    "status": "active",
    "distributor_id": 28,
    "panel_capacity_wp": 200,
    "battery_capacity_wh": 4000,
    "num_appliances": 17
  },
  {
    "installation_id": 11,
    "client_name": "ESTELLE ESSOMBA",
    "client_type": "residential",
    "city": "Yaoundé",
    "region": "Centre",
    "gps_lat": 3.519495,
    "gps_lon": 11.588314,
    "install_date": "2021-06-18",
    "tariff_plan": "Premium",
    "status": "active",
    "distributor_id": 4,
    "panel_capacity_wp": 500,
    "battery_capacity_wh": 4000,
    "num_appliances": 16
  },
  {
    "installation_id": 12,
    "client_name": "BELLO Entreprise",
    "client_type": "sme",
    "city": "Mbanga",
    "region": "Littoral",
    "gps_lat": 4.485592,
    "gps_lon": 9.217945,
    "install_date": "05/04/2020",
    "tariff_plan": "Basic",
    "status": "churned",
    "distributor_id": 17,
    "panel_capacity_wp": 300,
    "battery_capacity_wh": 2000,
    "num_appliances": 7
  },
  {
    "installation_id": 13,
    "client_name": "Lionel Boutique",
    "client_type": "sme",
    "city": "Loum",
    "region": "Littoral",
    "gps_lat": 4.484033,
    "gps_lon": 9.018471,
    "install_date": "2022-05-28",
    "tariff_plan": "Standard",
    "status": "active",
    "distributor_id": 1,
    "panel_capacity_wp": 200,
    "battery_capacity_wh": 1000,
    "num_appliances": 7
  },
  {
    "installation_id": 14,
    "client_name": "cynthia mengue",
    "client_type": "residential",
    "city": "Nanga-Eboko",
    "region": "Centre",
    "gps_lat": 3.599437,
    "gps_lon": 10.821693,
    "install_date": "2025/04/04",
    "tariff_plan": "Premium",
    "status": "active",
    "distributor_id": 34,
    "panel_capacity_wp": 300,
    "battery_capacity_wh": 600,
    "num_appliances": 3
  },
  {
    "installation_id": 15,
    "client_name": "BORIS ELLA",
    "client_type": "residential",
    "city": "Obala",
    "region": "Centre",
    "gps_lat": 4.48954,
    "gps_lon": 11.475544,
    "install_date": "22-11-2020",
    "tariff_plan": "Standard",
    "status": "active",
    "distributor_id": 37,
    "panel_capacity_wp": 750,
    "battery_capacity_wh": 600,
    "num_appliances": 10
  },
  {
    "installation_id": 16,
    "client_name": "AÏSSATOU Entreprise",
    "client_type": "sme",
    "city": "Mbanga",
    "region": "Littoral",
    "gps_lat": 4.483547,
    "gps_lon": 9.690073,
    "install_date": "2024-10-01",
    "tariff_plan": "Premium",
    "status": "active",
    "distributor_id": 28,
    "panel_capacity_wp": 750,
    "battery_capacity_wh": 2000,
    "num_appliances": 5
  },
  {
    "installation_id": 17,
    "client_name": "ESSOMBA Jean-Baptiste",
    "client_type": "residential",
    "city": "Dschang",
    "region": "Ouest",
    "gps_lat": null,
    "gps_lon": null,
    "install_date": "2020-05-05",
    "tariff_plan": "Basic",
    "status": "active",
    "distributor_id": 15,
    "panel_capacity_wp": 200,
    "battery_capacity_wh": 400,
    "num_appliances": 3
  },
  {
    "installation_id": 18,
    "client_name": "BORIS BEKOLO",
    "client_type": "residential",
    "city": "Mbalmayo",
    "region": "Centre",
    "gps_lat": 3.726613,
    "gps_lon": 11.928882,
    "install_date": "14-07-2022",
    "tariff_plan": "Premium",
    "status": "active",
    "distributor_id": 5,
    "panel_capacity_wp": 200,
    "battery_capacity_wh": 2000,
    "num_appliances": 15
  },
  {
    "installation_id": 19,
    "client_name": "KUATE Fatoumata",
    "client_type": "residential",
    "city": "Nkongsamba",
    "region": "Littoral",
    "gps_lat": 4.737516,
    "gps_lon": 10.192993,
    "install_date": "2023/10/31",
    "tariff_plan": "Basic",
    "status": "active",
    "distributor_id": 7,
    "panel_capacity_wp": 1000,
    "battery_capacity_wh": 400,
    "num_appliances": 3
  },
  {
    "installation_id": 20,
    "client_name": "Centre de Santé de Foumban",
    "client_type": "health_center",
    "city": "Foumban",
    "region": "Ouest",
    "gps_lat": 6.098094,
    "gps_lon": 10.482948,
    "install_date": "2021-02-03",
    "tariff_plan": "Premium",
    "status": "active",
    "distributor_id": 22,
    "panel_capacity_wp": 200,
    "battery_capacity_wh": 4000,
    "num_appliances": 16
  },
  {
    "installation_id": 21,
    "client_name": "Centre de Santé de Meiganga",
    "client_type": "health_center",
    "city": "Meiganga",
    "region": "Adamaoua",
    "gps_lat": 6.894696,
    "gps_lon": 12.583372,
    "install_date": "2024-02-06",
    "tariff_plan": "Basic",
    "status": "active",
    "distributor_id": 28,
    "panel_capacity_wp": 500,
    "battery_capacity_wh": 4000,
    "num_appliances": 5
  },
  {
    "installation_id": 22,
    "client_name": "Centre de Santé de Ngaoundéré",
    "client_type": "health_center",
    "city": "Ngaoundéré",
    "region": "Adamaoua",
    "gps_lat": 7.197858,
    "gps_lon": 12.255372,
    "install_date": "2020-12-15",
    "tariff_plan": "Basic",
    "status": "active",
    "distributor_id": 35,
    "panel_capacity_wp": 500,
    "battery_capacity_wh": 2000,
    "num_appliances": 17
  },
  {
    "installation_id": 23,
    "client_name": "ADAMOU NGUIMO",
    "client_type": "residential",
    "city": "Nkongsamba",
    "region": "Littoral",
    "gps_lat": 4.080065,
    "gps_lon": 10.02483,
    "install_date": "25-07-2021",
    "tariff_plan": "Custom",
    "status": "active",
    "distributor_id": 26,
    "panel_capacity_wp": 300,
    "battery_capacity_wh": 2000,
    "num_appliances": 17
  },
  {
    "installation_id": 24,
    "client_name": "Lycée Technique de Obala 1",
    "client_type": "school",
    "city": "Obala",
    "region": "Centre",
    "gps_lat": 3.865598,
    "gps_lon": 11.201405,
    "install_date": "29/08/2020",
    "tariff_plan": "Custom",
    "status": "active",
    "distributor_id": 13,
    "panel_capacity_wp": 150,
    "battery_capacity_wh": 4000,
    "num_appliances": 17
  },
  {
    "installation_id": 25,
    "client_name": "Rodrigue ESSOMBA",
    "client_type": "residential",
    "city": "Mbanga",
    "region": "Littoral",
    "gps_lat": 3.332366,
    "gps_lon": 9.345834,
    "install_date": "25/06/2024",
    "tariff_plan": "Standard",
    "status": "active",
    "distributor_id": 34,
    "panel_capacity_wp": 500,
    "battery_capacity_wh": 400,
    "num_appliances": 9
  },
  {
    "installation_id": 26,
    "client_name": "Vanessa HAMADOU",
    "client_type": "residential",
    "city": "Lomié",
    "region": "Est",
    "gps_lat": 5.367041,
    "gps_lon": 13.267288,
    "install_date": "2023/09/24",
    "tariff_plan": "Basic",
    "status": "active",
    "distributor_id": 3,
    "panel_capacity_wp": 300,
    "battery_capacity_wh": 2000,
    "num_appliances": 6
  },
  {
    "installation_id": 27,
    "client_name": "Rodrigue Commerce",
    "client_type": "sme",
    "city": "Wum",
    "region": "Nord-Ouest",
    "gps_lat": 5.748453,
    "gps_lon": 10.361689,
    "install_date": "12/10/2020",
    "tariff_plan": "Basic",
    "status": "active",
    "distributor_id": 30,
    "panel_capacity_wp": 750,
    "battery_capacity_wh": 1000,
    "num_appliances": 6
  },
  {
    "installation_id": 28,
    "client_name": "jacques owona",
    "client_type": "residential",
    "city": "Mbouda",
    "region": "Ouest",
    "gps_lat": 5.183248,
    "gps_lon": 9.91843,
    "install_date": "2023/04/23",
    "tariff_plan": "Basic",
    "status": "suspended",
    "distributor_id": 5,
    "panel_capacity_wp": 750,
    "battery_capacity_wh": 4000,
    "num_appliances": 2
  },
  {
    "installation_id": 29,
    "client_name": "Nadège FOUDA",
    "client_type": "residential",
    "city": "Mbanga",
    "region": "Littoral",
    "gps_lat": 4.069349,
    "gps_lon": 9.262393,
    "install_date": "2021-01-16",
    "tariff_plan": "Standard",
    "status": "active",
    "distributor_id": 20,
    "panel_capacity_wp": 300,
    "battery_capacity_wh": 1000,
    "num_appliances": 8
  },
  {
    "installation_id": 30,
    "client_name": "ISABELLE ONANA",
    "client_type": "residential",
    "city": "Mbouda",
    "region": "Ouest",
    "gps_lat": 6.168768,
    "gps_lon": 9.840034,
    "install_date": "30-05-2022",
    "tariff_plan": "Standard",
    "status": "active",
    "distributor_id": 14,
    "panel_capacity_wp": 300,
    "battery_capacity_wh": 400,
    "num_appliances": 2
  },
  {
    "installation_id": 31,
    "client_name": "TCHUENKAM Laurence",
    "client_type": "residential",
    "city": "Mbalmayo",
    "region": "Centre",
    "gps_lat": 3.482707,
    "gps_lon": 11.775974,
    "install_date": "2022-05-23",
    "tariff_plan": "Premium",
    "status": "maintenance",
    "distributor_id": 9,
    "panel_capacity_wp": 150,
    "battery_capacity_wh": 400,
    "num_appliances": 6
  },
  {
    "installation_id": 32,
    "client_name": "pauline atangana",
    "client_type": "residential",
    "city": "Tignère",
    "region": "Adamaoua",
    "gps_lat": 6.678964,
    "gps_lon": 13.335545,
    "install_date": "2025-02-12",
    "tariff_plan": "Standard",
    "status": "active",
    "distributor_id": 3,
    "panel_capacity_wp": 300,
    "battery_capacity_wh": 400,
    "num_appliances": 13
  },
  {
    "installation_id": 33,
    "client_name": "Marcel Boutique",
    "client_type": "sme",
    "city": "Batouri",
    "region": "Est",
    "gps_lat": 4.951529,
    "gps_lon": 14.315376,
    "install_date": "04-03-2023",
    "tariff_plan": "Basic",
    "status": "active",
    "distributor_id": 16,
    "panel_capacity_wp": 500,
    "battery_capacity_wh": 400,
    "num_appliances": 7
  },
  {
    "installation_id": 34,
    "client_name": "ADAMOU SA",
    "client_type": "sme",
    "city": "Abong-Mbang",
    "region": "Est",
    "gps_lat": 4.048606,
    "gps_lon": 14.317687,
    "install_date": "2022/04/11",
    "tariff_plan": "Standard",
    "status": "active",
    "distributor_id": 27,
    "panel_capacity_wp": 200,
    "battery_capacity_wh": 600,
    "num_appliances": 16
  },
  {
    "installation_id": 35,
    "client_name": "thierry guidiguis",
    "client_type": "residential",
    "city": "Mbouda",
    "region": "Ouest",
    "gps_lat": 4.678099,
    "gps_lon": 9.877293,
    "install_date": "2022-02-06",
    "tariff_plan": "Basic",
    "status": "active",
    "distributor_id": 20,
    "panel_capacity_wp": 300,
    "battery_capacity_wh": 400,
    "num_appliances": 10
  },
  {
    "installation_id": 36,
    "client_name": "emmanuel SARL",
    "client_type": "sme",
    "city": "Mbouda",
    "region": "Ouest",
    "gps_lat": 5.809487,
    "gps_lon": 9.999599,
    "install_date": "2024/09/21",
    "tariff_plan": "Standard",
    "status": "active",
    "distributor_id": 33,
    "panel_capacity_wp": 150,
    "battery_capacity_wh": 400,
    "num_appliances": 15
  },
  {
    "installation_id": 37,
    "client_name": "EMMANUEL Commerce",
    "client_type": "sme",
    "city": "Mbalmayo",
    "region": "Centre",
    "gps_lat": 4.122181,
    "gps_lon": 11.629294,
    "install_date": "06/07/2024",
    "tariff_plan": "Standard",
    "status": "suspended",
    "distributor_id": 21,
    "panel_capacity_wp": 150,
    "battery_capacity_wh": 4000,
    "num_appliances": 8
  },
  {
    "installation_id": 38,
    "client_name": "lionel manga",
    "client_type": "residential",
    "city": "Edéa",
    "region": "Littoral",
    "gps_lat": null,
    "gps_lon": null,
    "install_date": "2022/12/21",
    "tariff_plan": "Basic",
    "status": "active",
    "distributor_id": 28,
    "panel_capacity_wp": 1000,
    "battery_capacity_wh": 2000,
    "num_appliances": 12
  },
  {
    "installation_id": 39,
    "client_name": "colette Entreprise",
    "client_type": "sme",
    "city": "Yokadouma",
    "region": "Est",
    "gps_lat": 4.713046,
    "gps_lon": 13.668028,
    "install_date": "18-10-2021",
    "tariff_plan": "Premium",
    "status": "active",
    "distributor_id": 19,
    "panel_capacity_wp": 500,
    "battery_capacity_wh": 4000,
    "num_appliances": 2
  },
  {
    "installation_id": 40,
    "client_name": "MARIAMA Commerce",
    "client_type": "sme",
    "city": "Edéa",
    "region": "Littoral",
    "gps_lat": 4.282756,
    "gps_lon": 9.183377,
    "install_date": "2025/02/04",
    "tariff_plan": "Basic",
    "status": "active",
    "distributor_id": 19,
    "panel_capacity_wp": 1000,
    "battery_capacity_wh": 600,
    "num_appliances": 4
  },
  {
    "installation_id": 41,
    "client_name": "CES de Mokolo 3",
    "client_type": "school",
    "city": "Mokolo",
    "region": "Extrême-Nord",
    "gps_lat": 10.724731,
    "gps_lon": 14.93531,
    "install_date": "06/01/2023",
    "tariff_plan": "Premium",
    "status": "active",
    "distributor_id": 33,
    "panel_capacity_wp": 200,
    "battery_capacity_wh": 600,
    "num_appliances": 6
  },
  {
    "installation_id": 42,
    "client_name": "École Publique de Yaoundé 4",
    "client_type": "school",
    "city": "Yaoundé",
    "region": "Centre",
    "gps_lat": 3.541118,
    "gps_lon": 11.336156,
    "install_date": "16/03/2024",
    "tariff_plan": "Custom",
    "status": "suspended",
    "distributor_id": 3,
    "panel_capacity_wp": 1000,
    "battery_capacity_wh": 4000,
    "num_appliances": 8
  },
  {
    "installation_id": 43,
    "client_name": "Paul FOTSO",
    "client_type": "residential",
    "city": "Banyo",
    "region": "Adamaoua",
    "gps_lat": 8.027848,
    "gps_lon": 13.013648,
    "install_date": "02/06/2021",
    "tariff_plan": "Basic",
    "status": "active",
    "distributor_id": 32,
    "panel_capacity_wp": 1000,
    "battery_capacity_wh": 4000,
    "num_appliances": 16
  },
  {
    "installation_id": 44,
    "client_name": "andré ekani",
    "client_type": "residential",
    "city": "Bafoussam",
    "region": "Ouest",
    "gps_lat": 4.894134,
    "gps_lon": 10.449327,
    "install_date": "13-03-2021",
    "tariff_plan": "Standard",
    "status": "churned",
    "distributor_id": 36,
    "panel_capacity_wp": 500,
    "battery_capacity_wh": 4000,
    "num_appliances": 18
  },
  {
    "installation_id": 45,
    "client_name": "SANDRINE Commerce",
    "client_type": "sme",
    "city": "Yokadouma",
    "region": "Est",
    "gps_lat": 4.365186,
    "gps_lon": 13.349747,
    "install_date": "08-07-2021",
    "tariff_plan": "Standard",
    "status": "active",
    "distributor_id": 36,
    "panel_capacity_wp": 1000,
    "battery_capacity_wh": 600,
    "num_appliances": 10
  },
  {
    "installation_id": 46,
    "client_name": "Laurence PME",
    "client_type": "sme",
    "city": "Banyo",
    "region": "Adamaoua",
    "gps_lat": 7.348148,
    "gps_lon": 12.702426,
    "install_date": "2022/02/27",
    "tariff_plan": "Premium",
    "status": "maintenance",
    "distributor_id": 5,
    "panel_capacity_wp": 200,
    "battery_capacity_wh": 600,
    "num_appliances": 14
  },
  {
    "installation_id": 47,
    "client_name": "Fatoumata Boutique",
    "client_type": "sme",
    "city": "Meiganga",
    "region": "Adamaoua",
    "gps_lat": null,
    "gps_lon": null,
    "install_date": "2023/08/19",
    "tariff_plan": "Standard",
    "status": "suspended",
    "distributor_id": 14,
    "panel_capacity_wp": 500,
    "battery_capacity_wh": 2000,
    "num_appliances": 2
  },
  {
    "installation_id": 48,
    "client_name": "Fatoumata OWONA",
    "client_type": "residential",
    "city": "Nanga-Eboko",
    "region": "Centre",
    "gps_lat": 3.814957,
    "gps_lon": 11.588231,
    "install_date": "2023/02/26",
    "tariff_plan": "Standard",
    "status": "active",
    "distributor_id": 25,
    "panel_capacity_wp": 500,
    "battery_capacity_wh": 600,
    "num_appliances": 10
  },
  {
    "installation_id": 49,
    "client_name": "ELLA André",
    "client_type": "residential",
    "city": "Loum",
    "region": "Littoral",
    "gps_lat": null,
    "gps_lon": null,
    "install_date": "09-01-2023",
    "tariff_plan": "Basic",
    "status": "active",
    "distributor_id": 32,
    "panel_capacity_wp": 500,
    "battery_capacity_wh": 4000,
    "num_appliances": 2
  },
  {
    "installation_id": 50,
    "client_name": "emmanuel dairou",
    "client_type": "residential",
    "city": "Douala",
    "region": "Littoral",
    "gps_lat": 4.246625,
    "gps_lon": 9.036556,
    "install_date": "2024-02-03",
    "tariff_plan": "Premium",
    "status": "active",
    "distributor_id": 28,
    "panel_capacity_wp": 200,
    "battery_capacity_wh": 2000,
    "num_appliances": 12
  },
  {
    "installation_id": 51,
    "client_name": "NKOUAM Henri",
    "client_type": "residential",
    "city": "Edéa",
    "region": "Littoral",
    "gps_lat": 4.411746,
    "gps_lon": 10.461363,
    "install_date": "2023/10/01",
    "tariff_plan": "Standard",
    "status": "active",
    "distributor_id": 25,
    "panel_capacity_wp": 300,
    "battery_capacity_wh": 600,
    "num_appliances": 4
  },
  {
    "installation_id": 52,
    "client_name": "MARCEL ELLA",
    "client_type": "residential",
    "city": "Yaoundé",
    "region": "Centre",
    "gps_lat": 3.772354,
    "gps_lon": 10.84553,
    "install_date": "10/11/2021",
    "tariff_plan": "Premium",
    "status": "active",
    "distributor_id": 2,
    "panel_capacity_wp": 1000,
    "battery_capacity_wh": 400,
    "num_appliances": 8
  },
  {
    "installation_id": 53,
    "client_name": "CES de Loum 3",
    "client_type": "school",
    "city": "Loum",
    "region": "Littoral",
    "gps_lat": 3.904325,
    "gps_lon": 9.177271,
    "install_date": "04/08/2021",
    "tariff_plan": "Premium",
    "status": "active",
    "distributor_id": 17,
    "panel_capacity_wp": 150,
    "battery_capacity_wh": 4000,
    "num_appliances": 2
  },
  {
    "installation_id": 54,
    "client_name": "Rodrigue MVONDO",
    "client_type": "residential",
    "city": "Edéa",
    "region": "Littoral",
    "gps_lat": 4.306316,
    "gps_lon": 9.347894,
    "install_date": "11-05-2023",
    "tariff_plan": "Standard",
    "status": "active",
    "distributor_id": 37,
    "panel_capacity_wp": 150,
    "battery_capacity_wh": 1000,
    "num_appliances": 5
  },
  {
    "installation_id": 55,
    "client_name": "CYNTHIA SARL",
    "client_type": "sme",
    "city": "Mora",
    "region": "Extrême-Nord",
    "gps_lat": 11.37136,
    "gps_lon": 13.84637,
    "install_date": "2023/10/22",
    "tariff_plan": "Standard",
    "status": "active",
    "distributor_id": 3,
    "panel_capacity_wp": 150,
    "battery_capacity_wh": 2000,
    "num_appliances": 13
  },
  {
    "installation_id": 56,
    "client_name": "mariama Boutique",
    "client_type": "sme",
    "city": "Bafia",
    "region": "Centre",
    "gps_lat": 3.143604,
    "gps_lon": 10.785166,
    "install_date": "2024/08/08",
    "tariff_plan": "Basic",
    "status": "active",
    "distributor_id": 10,
    "panel_capacity_wp": 300,
    "battery_capacity_wh": 600,
    "num_appliances": 4
  },
  {
    "installation_id": 57,
    "client_name": "Claude PME",
    "client_type": "sme",
    "city": "Tibati",
    "region": "Adamaoua",
    "gps_lat": 7.316585,
    "gps_lon": 12.657555,
    "install_date": "12-02-2024",
    "tariff_plan": "Standard",
    "status": "active",
    "distributor_id": 29,
    "panel_capacity_wp": 500,
    "battery_capacity_wh": 600,
    "num_appliances": 13
  },
  {
    "installation_id": 58,
    "client_name": "Thierry ONANA",
    "client_type": "residential",
    "city": "Edéa",
    "region": "Littoral",
    "gps_lat": 4.26615,
    "gps_lon": 8.972486,
    "install_date": "2025/03/27",
    "tariff_plan": "Standard",
    "status": "active",
    "distributor_id": 22,
    "panel_capacity_wp": 1000,
    "battery_capacity_wh": 2000,
    "num_appliances": 17
  },
  {
    "installation_id": 59,
    "client_name": "FABRICE SARL",
    "client_type": "sme",
    "city": "Nanga-Eboko",
    "region": "Centre",
    "gps_lat": 4.12391,
    "gps_lon": 10.980695,
    "install_date": "03-05-2024",
    "tariff_plan": "Standard",
    "status": "suspended",
    "distributor_id": 16,
    "panel_capacity_wp": 1000,
    "battery_capacity_wh": 600,
    "num_appliances": 11
  },
  {
    "installation_id": 60,
    "client_name": "carole Commerce",
    "client_type": "sme",
    "city": "Mbanga",
    "region": "Littoral",
    "gps_lat": 4.754368,
    "gps_lon": 9.820759,
    "install_date": "2024/09/05",
    "tariff_plan": "Basic",
    "status": "active",
    "distributor_id": 24,
    "panel_capacity_wp": 300,
    "battery_capacity_wh": 1000,
    "num_appliances": 9
  },
  {
    "installation_id": 61,
    "client_name": "henri SA",
    "client_type": "sme",
    "city": "Yaoundé",
    "region": "Centre",
    "gps_lat": 4.576344,
    "gps_lon": 11.337764,
    "install_date": "2024-09-20",
    "tariff_plan": "Standard",
    "status": "active",
    "distributor_id": 13,
    "panel_capacity_wp": 150,
    "battery_capacity_wh": 600,
    "num_appliances": 11
  },
  {
    "installation_id": 62,
    "client_name": "Centre de Santé Intégré de Kousseri",
    "client_type": "health_center",
    "city": "Kousseri",
    "region": "Extrême-Nord",
    "gps_lat": 10.861245,
    "gps_lon": 13.479155,
    "install_date": "2020-04-13",
    "tariff_plan": "Basic",
    "status": "active",
    "distributor_id": 24,
    "panel_capacity_wp": 150,
    "battery_capacity_wh": 400,
    "num_appliances": 11
  },
  {
    "installation_id": 63,
    "client_name": "Mariama Commerce",
    "client_type": "sme",
    "city": "Nkongsamba",
    "region": "Littoral",
    "gps_lat": 4.6018,
    "gps_lon": 8.937235,
    "install_date": "2020/04/08",
    "tariff_plan": "Basic",
    "status": "active",
    "distributor_id": 32,
    "panel_capacity_wp": 150,
    "battery_capacity_wh": 1000,
    "num_appliances": 17
  },
  {
    "installation_id": 64,
    "client_name": "didier bekolo",
    "client_type": "residential",
    "city": "Ngaoundéré",
    "region": "Adamaoua",
    "gps_lat": 7.536309,
    "gps_lon": 13.303955,
    "install_date": "17/10/2020",
    "tariff_plan": "Basic",
    "status": "active",
    "distributor_id": 5,
    "panel_capacity_wp": 150,
    "battery_capacity_wh": 600,
    "num_appliances": 5
  },
  {
    "installation_id": 65,
    "client_name": "FRANCINE Commerce",
    "client_type": "sme",
    "city": "Fundong",
    "region": "Nord-Ouest",
    "gps_lat": 6.360984,
    "gps_lon": 10.640936,
    "install_date": "31-01-2022",
    "tariff_plan": "Basic",
    "status": "active",
    "distributor_id": 27,
    "panel_capacity_wp": 300,
    "battery_capacity_wh": 4000,
    "num_appliances": 3
  },
  {
    "installation_id": 66,
    "client_name": "Colette ONANA",
    "client_type": "residential",
    "city": "Mora",
    "region": "Extrême-Nord",
    "gps_lat": 11.245286,
    "gps_lon": 14.939212,
    "install_date": "2021-12-06",
    "tariff_plan": "Standard",
    "status": "active",
    "distributor_id": 7,
    "panel_capacity_wp": 200,
    "battery_capacity_wh": 600,
    "num_appliances": 4
  },
  {
    "installation_id": 67,
    "client_name": "isabelle fotso",
    "client_type": "residential",
    "city": "Meiganga",
    "region": "Adamaoua",
    "gps_lat": 6.694998,
    "gps_lon": 13.344085,
    "install_date": "19-03-2025",
    "tariff_plan": "Premium",
    "status": "active",
    "distributor_id": 1,
    "panel_capacity_wp": 1000,
    "battery_capacity_wh": 1000,
    "num_appliances": 16
  },
  {
    "installation_id": 68,
    "client_name": "alain Commerce",
    "client_type": "sme",
    "city": "Yaoundé",
    "region": "Centre",
    "gps_lat": 3.692723,
    "gps_lon": 10.73734,
    "install_date": "2025-03-07",
    "tariff_plan": "Basic",
    "status": "maintenance",
    "distributor_id": 15,
    "panel_capacity_wp": 200,
    "battery_capacity_wh": 400,
    "num_appliances": 3
  },
  {
    "installation_id": 69,
    "client_name": "nadège kuate",
    "client_type": "residential",
    "city": "Batouri",
    "region": "Est",
    "gps_lat": 5.310971,
    "gps_lon": 13.797501,
    "install_date": "2025/01/02",
    "tariff_plan": "Basic",
    "status": "churned",
    "distributor_id": 20,
    "panel_capacity_wp": 1000,
    "battery_capacity_wh": 2000,
    "num_appliances": 10
  },
  {
    "installation_id": 70,
    "client_name": "NGUIMO Nathalie",
    "client_type": "residential",
    "city": "Bafang",
    "region": "Ouest",
    "gps_lat": 5.74603,
    "gps_lon": 10.823799,
    "install_date": "05/11/2020",
    "tariff_plan": "Basic",
    "status": "active",
    "distributor_id": 35,
    "panel_capacity_wp": 150,
    "battery_capacity_wh": 600,
    "num_appliances": 2
  },
  {
    "installation_id": 71,
    "client_name": "JOSIANE Boutique",
    "client_type": "sme",
    "city": "Tibati",
    "region": "Adamaoua",
    "gps_lat": null,
    "gps_lon": null,
    "install_date": "27-08-2021",
    "tariff_plan": "Basic",
    "status": "active",
    "distributor_id": 37,
    "panel_capacity_wp": 1000,
    "battery_capacity_wh": 2000,
    "num_appliances": 4
  },
  {
    "installation_id": 72,
    "client_name": "Centre de Santé de Bafia",
    "client_type": "health_center",
    "city": "Bafia",
    "region": "Centre",
    "gps_lat": 3.298787,
    "gps_lon": 11.938417,
    "install_date": "23/11/2022",
    "tariff_plan": "Standard",
    "status": "active",
    "distributor_id": 23,
    "panel_capacity_wp": 300,
    "battery_capacity_wh": 2000,
    "num_appliances": 17
  },
  {
    "installation_id": 73,
    "client_name": "marie-claire hamadou",
    "client_type": "residential",
    "city": "Mbouda",
    "region": "Ouest",
    "gps_lat": 4.786421,
    "gps_lon": 10.934976,
    "install_date": "04/11/2024",
    "tariff_plan": "Basic",
    "status": "active",
    "distributor_id": 26,
    "panel_capacity_wp": 300,
    "battery_capacity_wh": 400,
    "num_appliances": 14
  },
  {
    "installation_id": 74,
    "client_name": "isabelle mebada",
    "client_type": "residential",
    "city": "Fundong",
    "region": "Nord-Ouest",
    "gps_lat": 5.758833,
    "gps_lon": 9.943027,
    "install_date": "11-10-2024",
    "tariff_plan": "Basic",
    "status": "churned",
    "distributor_id": 1,
    "panel_capacity_wp": 750,
    "battery_capacity_wh": 2000,
    "num_appliances": 16
  },
  {
    "installation_id": 75,
    "client_name": "École Publique de Ngaoundéré 4",
    "client_type": "school",
    "city": "Ngaoundéré",
    "region": "Adamaoua",
    "gps_lat": 7.132015,
    "gps_lon": 12.033601,
    "install_date": "2021/04/12",
    "tariff_plan": "Custom",
    "status": "active",
    "distributor_id": 14,
    "panel_capacity_wp": 150,
    "battery_capacity_wh": 400,
    "num_appliances": 9
  },
  {
    "installation_id": 76,
    "client_name": "ALAIN MENGUE",
    "client_type": "residential",
    "city": "Kumbo",
    "region": "Nord-Ouest",
    "gps_lat": 5.337916,
    "gps_lon": 10.1382,
    "install_date": "10-11-2024",
    "tariff_plan": "Standard",
    "status": "maintenance",
    "distributor_id": 20,
    "panel_capacity_wp": 150,
    "battery_capacity_wh": 600,
    "num_appliances": 17
  },
  {
    "installation_id": 77,
    "client_name": "Sandrine KUATE",
    "client_type": "residential",
    "city": "Edéa",
    "region": "Littoral",
    "gps_lat": 3.438042,
    "gps_lon": 9.938736,
    "install_date": "12-09-2023",
    "tariff_plan": "Basic",
    "status": "active",
    "distributor_id": 33,
    "panel_capacity_wp": 500,
    "battery_capacity_wh": 600,
    "num_appliances": 18
  },
  {
    "installation_id": 78,
    "client_name": "cynthia feudjio",
    "client_type": "residential",
    "city": "Kumbo",
    "region": "Nord-Ouest",
    "gps_lat": 5.617139,
    "gps_lon": 10.739759,
    "install_date": "2023/09/11",
    "tariff_plan": "Custom",
    "status": "active",
    "distributor_id": 5,
    "panel_capacity_wp": 750,
    "battery_capacity_wh": 4000,
    "num_appliances": 17
  },
  {
    "installation_id": 79,
    "client_name": "École Publique de Nkongsamba 4",
    "client_type": "school",
    "city": "Nkongsamba",
    "region": "Littoral",
    "gps_lat": 3.319056,
    "gps_lon": 10.325829,
    "install_date": "2023/02/06",
    "tariff_plan": "Basic",
    "status": "churned",
    "distributor_id": 29,
    "panel_capacity_wp": 300,
    "battery_capacity_wh": 600,
    "num_appliances": 9
  },
  {
    "installation_id": 80,
    "client_name": "Lycée Technique de Bafang 4",
    "client_type": "school",
    "city": "Bafang",
    "region": "Ouest",
    "gps_lat": 6.220884,
    "gps_lon": 10.456957,
    "install_date": "29/08/2023",
    "tariff_plan": "Basic",
    "status": "active",
    "distributor_id": 25,
    "panel_capacity_wp": 1000,
    "battery_capacity_wh": 2000,
    "num_appliances": 14
  },
  {
    "installation_id": 81,
    "client_name": "NADÈGE SARL",
    "client_type": "sme",
    "city": "Dschang",
    "region": "Ouest",
    "gps_lat": 5.604903,
    "gps_lon": 11.061853,
    "install_date": "2021/03/28",
    "tariff_plan": "Standard",
    "status": "active",
    "distributor_id": 32,
    "panel_capacity_wp": 150,
    "battery_capacity_wh": 600,
    "num_appliances": 15
  },
  {
    "installation_id": 82,
    "client_name": "brigitte onana",
    "client_type": "residential",
    "city": "Nkongsamba",
    "region": "Littoral",
    "gps_lat": 3.979051,
    "gps_lon": 9.892212,
    "install_date": "2022/06/02",
    "tariff_plan": "Custom",
    "status": "maintenance",
    "distributor_id": 5,
    "panel_capacity_wp": 1000,
    "battery_capacity_wh": 4000,
    "num_appliances": 14
  },
  {
    "installation_id": 83,
    "client_name": "FOTSO Fabrice",
    "client_type": "residential",
    "city": "Edéa",
    "region": "Littoral",
    "gps_lat": 4.18385,
    "gps_lon": 9.024375,
    "install_date": "20/06/2020",
    "tariff_plan": "Standard",
    "status": "active",
    "distributor_id": 32,
    "panel_capacity_wp": 500,
    "battery_capacity_wh": 400,
    "num_appliances": 5
  },
  {
    "installation_id": 84,
    "client_name": "Lycée Technique de Yagoua 1",
    "client_type": "school",
    "city": "Yagoua",
    "region": "Extrême-Nord",
    "gps_lat": 11.195244,
    "gps_lon": 14.752072,
    "install_date": "29/05/2020",
    "tariff_plan": "Standard",
    "status": "active",
    "distributor_id": 11,
    "panel_capacity_wp": 300,
    "battery_capacity_wh": 1000,
    "num_appliances": 13
  },
  {
    "installation_id": 85,
    "client_name": "ROMUALD ONANA",
    "client_type": "residential",
    "city": "Nkambe",
    "region": "Nord-Ouest",
    "gps_lat": 6.67968,
    "gps_lon": 10.511151,
    "install_date": "2023-09-02",
    "tariff_plan": "Premium",
    "status": "suspended",
    "distributor_id": 10,
    "panel_capacity_wp": 750,
    "battery_capacity_wh": 600,
    "num_appliances": 17
  },
  {
    "installation_id": 86,
    "client_name": "COLETTE MBARGA",
    "client_type": "residential",
    "city": "Bafang",
    "region": "Ouest",
    "gps_lat": 4.74235,
    "gps_lon": 9.662187,
    "install_date": "29-04-2022",
    "tariff_plan": "Custom",
    "status": "maintenance",
    "distributor_id": 10,
    "panel_capacity_wp": 300,
    "battery_capacity_wh": 4000,
    "num_appliances": 7
  },
  {
    "installation_id": 87,
    "client_name": "josiane Entreprise",
    "client_type": "sme",
    "city": "Yaoundé",
    "region": "Centre",
    "gps_lat": 4.020609,
    "gps_lon": 11.329425,
    "install_date": "2025/02/28",
    "tariff_plan": "Custom",
    "status": "active",
    "distributor_id": 29,
    "panel_capacity_wp": 200,
    "battery_capacity_wh": 2000,
    "num_appliances": 17
  },
  {
    "installation_id": 88,
    "client_name": "Centre de Santé Communautaire de Maroua",
    "client_type": "health_center",
    "city": "Maroua",
    "region": "Extrême-Nord",
    "gps_lat": 11.363711,
    "gps_lon": 13.887451,
    "install_date": "2023/03/21",
    "tariff_plan": "Premium",
    "status": "active",
    "distributor_id": 16,
    "panel_capacity_wp": 300,
    "battery_capacity_wh": 400,
    "num_appliances": 14
  },
  {
    "installation_id": 89,
    "client_name": "Centre de Santé Intégré de Edéa",
    "client_type": "health_center",
    "city": "Edéa",
    "region": "Littoral",
    "gps_lat": 4.844619,
    "gps_lon": 9.788691,
    "install_date": "31-07-2020",
    "tariff_plan": "Premium",
    "status": "churned",
    "distributor_id": 1,
    "panel_capacity_wp": 200,
    "battery_capacity_wh": 4000,
    "num_appliances": 13
  },
  {
    "installation_id": 90,
    "client_name": "École Primaire de Kumbo 3",
    "client_type": "school",
    "city": "Kumbo",
    "region": "Nord-Ouest",
    "gps_lat": 5.880871,
    "gps_lon": 9.556655,
    "install_date": "29/04/2021",
    "tariff_plan": "Premium",
    "status": "active",
    "distributor_id": 13,
    "panel_capacity_wp": 500,
    "battery_capacity_wh": 400,
    "num_appliances": 13
  },
  {
    "installation_id": 91,
    "client_name": "thierry ella",
    "client_type": "residential",
    "city": "Kousseri",
    "region": "Extrême-Nord",
    "gps_lat": 11.689005,
    "gps_lon": 14.02306,
    "install_date": "11-12-2022",
    "tariff_plan": "Basic",
    "status": "active",
    "distributor_id": 6,
    "panel_capacity_wp": 750,
    "battery_capacity_wh": 4000,
    "num_appliances": 10
  },
  {
    "installation_id": 92,
    "client_name": "KUATE Entreprise",
    "client_type": "sme",
    "city": "Nkongsamba",
    "region": "Littoral",
    "gps_lat": 4.082262,
    "gps_lon": 10.26349,
    "install_date": "2024/04/06",
    "tariff_plan": "Standard",
    "status": "active",
    "distributor_id": 17,
    "panel_capacity_wp": 200,
    "battery_capacity_wh": 600,
    "num_appliances": 14
  },
  {
    "installation_id": 93,
    "client_name": "LAURENCE MENGUE",
    "client_type": "residential",
    "city": "Bafang",
    "region": "Ouest",
    "gps_lat": 4.884424,
    "gps_lon": 9.666052,
    "install_date": "09/07/2023",
    "tariff_plan": "Premium",
    "status": "active",
    "distributor_id": 24,
    "panel_capacity_wp": 300,
    "battery_capacity_wh": 1000,
    "num_appliances": 14
  },
  {
    "installation_id": 94,
    "client_name": "FOTSO Boutique",
    "client_type": "sme",
    "city": "Wum",
    "region": "Nord-Ouest",
    "gps_lat": 5.378194,
    "gps_lon": 9.373271,
    "install_date": "04/03/2024",
    "tariff_plan": "Standard",
    "status": "active",
    "distributor_id": 7,
    "panel_capacity_wp": 1000,
    "battery_capacity_wh": 2000,
    "num_appliances": 11
  },
  {
    "installation_id": 95,
    "client_name": "Nadège FOUDA",
    "client_type": "residential",
    "city": "Bafia",
    "region": "Centre",
    "gps_lat": 4.516654,
    "gps_lon": 11.277209,
    "install_date": "2020/06/24",
    "tariff_plan": "Standard",
    "status": "active",
    "distributor_id": 8,
    "panel_capacity_wp": 750,
    "battery_capacity_wh": 600,
    "num_appliances": 14
  },
  {
    "installation_id": 96,
    "client_name": "PIERRE Boutique",
    "client_type": "sme",
    "city": "Bafia",
    "region": "Centre",
    "gps_lat": 4.449782,
    "gps_lon": 12.239233,
    "install_date": "04-10-2024",
    "tariff_plan": "Standard",
    "status": "active",
    "distributor_id": 24,
    "panel_capacity_wp": 750,
    "battery_capacity_wh": 2000,
    "num_appliances": 10
  },
  {
    "installation_id": 97,
    "client_name": "Centre de Santé Intégré de Douala",
    "client_type": "health_center",
    "city": "Douala",
    "region": "Littoral",
    "gps_lat": 3.984617,
    "gps_lon": 10.468052,
    "install_date": "2023-12-12",
    "tariff_plan": "Standard",
    "status": "active",
    "distributor_id": 24,
    "panel_capacity_wp": 150,
    "battery_capacity_wh": 1000,
    "num_appliances": 13
  },
  {
    "installation_id": 98,
    "client_name": "NKOUAM Gérard",
    "client_type": "residential",
    "city": "Yaoundé",
    "region": "Centre",
    "gps_lat": 3.191381,
    "gps_lon": 10.926208,
    "install_date": "15-03-2021",
    "tariff_plan": "Standard",
    "status": "active",
    "distributor_id": 26,
    "panel_capacity_wp": 300,
    "battery_capacity_wh": 600,
    "num_appliances": 6
  },
  {
    "installation_id": 99,
    "client_name": "Alain BELLO",
    "client_type": "residential",
    "city": "Mbanga",
    "region": "Littoral",
    "gps_lat": null,
    "gps_lon": null,
    "install_date": "2024-11-16",
    "tariff_plan": "Basic",
    "status": "active",
    "distributor_id": 14,
    "panel_capacity_wp": 750,
    "battery_capacity_wh": 400,
    "num_appliances": 10
  },
  {
    "installation_id": 100,
    "client_name": "boris mbarga",
    "client_type": "residential",
    "city": "Batouri",
    "region": "Est",
    "gps_lat": 4.097662,
    "gps_lon": 12.94539,
    "install_date": "25/08/2021",
    "tariff_plan": "Standard",
    "status": "active",
    "distributor_id": 9,
    "panel_capacity_wp": 200,
    "battery_capacity_wh": 4000,
    "num_appliances": 12
  },
  {
    "installation_id": 101,
    "client_name": "RODRIGUE FOMEKONG",
    "client_type": "residential",
    "city": "Douala",
    "region": "Littoral",
    "gps_lat": 3.443017,
    "gps_lon": 9.637246,
    "install_date": "29-03-2021",
    "tariff_plan": "Basic",
    "status": "active",
    "distributor_id": 12,
    "panel_capacity_wp": 300,
    "battery_capacity_wh": 4000,
    "num_appliances": 5
  },
  {
    "installation_id": 102,
    "client_name": "NKOUAM Mariama",
    "client_type": "residential",
    "city": "Loum",
    "region": "Littoral",
    "gps_lat": 3.312899,
    "gps_lon": 10.179057,
    "install_date": "25/05/2025",
    "tariff_plan": "Standard",
    "status": "active",
    "distributor_id": 33,
    "panel_capacity_wp": 500,
    "battery_capacity_wh": 2000,
    "num_appliances": 15
  },
  {
    "installation_id": 103,
    "client_name": "ABENA Ibrahim",
    "client_type": "residential",
    "city": "Bafoussam",
    "region": "Ouest",
    "gps_lat": 4.767725,
    "gps_lon": 10.063004,
    "install_date": "09/12/2023",
    "tariff_plan": "Premium",
    "status": "maintenance",
    "distributor_id": 32,
    "panel_capacity_wp": 200,
    "battery_capacity_wh": 1000,
    "num_appliances": 12
  },
  {
    "installation_id": 104,
    "client_name": "GÉRARD SARL",
    "client_type": "sme",
    "city": "Banyo",
    "region": "Adamaoua",
    "gps_lat": 7.122755,
    "gps_lon": 12.675237,
    "install_date": "18-06-2024",
    "tariff_plan": "Basic",
    "status": "active",
    "distributor_id": 34,
    "panel_capacity_wp": 200,
    "battery_capacity_wh": 2000,
    "num_appliances": 12
  },
  {
    "installation_id": 105,
    "client_name": "nathalie nguimo",
    "client_type": "residential",
    "city": "Foumban",
    "region": "Ouest",
    "gps_lat": 4.728693,
    "gps_lon": 10.023899,
    "install_date": "2020/12/21",
    "tariff_plan": "Standard",
    "status": "active",
    "distributor_id": 26,
    "panel_capacity_wp": 200,
    "battery_capacity_wh": 2000,
    "num_appliances": 4
  },
  {
    "installation_id": 106,
    "client_name": "Centre de Santé de Bamenda",
    "client_type": "health_center",
    "city": "Bamenda",
    "region": "Nord-Ouest",
    "gps_lat": 5.331475,
    "gps_lon": 10.06586,
    "install_date": "2020/12/26",
    "tariff_plan": "Standard",
    "status": "active",
    "distributor_id": 6,
    "panel_capacity_wp": 750,
    "battery_capacity_wh": 400,
    "num_appliances": 12
  },
  {
    "installation_id": 107,
    "client_name": "estelle tagne",
    "client_type": "residential",
    "city": "Bafoussam",
    "region": "Ouest",
    "gps_lat": 4.702114,
    "gps_lon": 10.135327,
    "install_date": "06/10/2023",
    "tariff_plan": "Basic",
    "status": "active",
    "distributor_id": 27,
    "panel_capacity_wp": 150,
    "battery_capacity_wh": 4000,
    "num_appliances": 18
  },
  {
    "installation_id": 108,
    "client_name": "OUSMANOU Laurence",
    "client_type": "residential",
    "city": "Nkongsamba",
    "region": "Littoral",
    "gps_lat": 4.199748,
    "gps_lon": 9.986564,
    "install_date": "26/01/2022",
    "tariff_plan": "Basic",
    "status": "maintenance",
    "distributor_id": 10,
    "panel_capacity_wp": 300,
    "battery_capacity_wh": 4000,
    "num_appliances": 9
  },
  {
    "installation_id": 109,
    "client_name": "cynthia etoa",
    "client_type": "residential",
    "city": "Nkambe",
    "region": "Nord-Ouest",
    "gps_lat": 6.098946,
    "gps_lon": 10.542703,
    "install_date": "20/05/2025",
    "tariff_plan": "Basic",
    "status": "active",
    "distributor_id": 36,
    "panel_capacity_wp": 1000,
    "battery_capacity_wh": 1000,
    "num_appliances": 12
  },
  {
    "installation_id": 110,
    "client_name": "NKOUAM Didier",
    "client_type": "residential",
    "city": "Mbalmayo",
    "region": "Centre",
    "gps_lat": 4.103468,
    "gps_lon": 11.633245,
    "install_date": "20-05-2021",
    "tariff_plan": "Basic",
    "status": "active",
    "distributor_id": 1,
    "panel_capacity_wp": 1000,
    "battery_capacity_wh": 4000,
    "num_appliances": 8
  },
  {
    "installation_id": 111,
    "client_name": "Lycée Technique de Bafia 3",
    "client_type": "school",
    "city": "Bafia",
    "region": "Centre",
    "gps_lat": 3.232852,
    "gps_lon": 10.964575,
    "install_date": "2021/07/03",
    "tariff_plan": "Standard",
    "status": "active",
    "distributor_id": 27,
    "panel_capacity_wp": 750,
    "battery_capacity_wh": 4000,
    "num_appliances": 4
  },
  {
    "installation_id": 112,
    "client_name": "MARIAMA TCHUENKAM",
    "client_type": "residential",
    "city": "Douala",
    "region": "Littoral",
    "gps_lat": 3.527398,
    "gps_lon": 10.334825,
    "install_date": "02/08/2020",
    "tariff_plan": "Basic",
    "status": "active",
    "distributor_id": 10,
    "panel_capacity_wp": 750,
    "battery_capacity_wh": 2000,
    "num_appliances": 15
  },
  {
    "installation_id": 113,
    "client_name": "NADÈGE FEUDJIO",
    "client_type": "residential",
    "city": "Edéa",
    "region": "Littoral",
    "gps_lat": 3.429262,
    "gps_lon": 9.536569,
    "install_date": "2021/02/17",
    "tariff_plan": "Standard",
    "status": "churned",
    "distributor_id": 14,
    "panel_capacity_wp": 750,
    "battery_capacity_wh": 1000,
    "num_appliances": 3
  },
  {
    "installation_id": 114,
    "client_name": "Centre de Santé de Kousseri",
    "client_type": "health_center",
    "city": "Kousseri",
    "region": "Extrême-Nord",
    "gps_lat": 10.97342,
    "gps_lon": 14.519829,
    "install_date": "18/08/2020",
    "tariff_plan": "Premium",
    "status": "active",
    "distributor_id": 26,
    "panel_capacity_wp": 300,
    "battery_capacity_wh": 600,
    "num_appliances": 6
  },
  {
    "installation_id": 115,
    "client_name": "CHRISTELLE ELLA",
    "client_type": "residential",
    "city": "Abong-Mbang",
    "region": "Est",
    "gps_lat": 5.021189,
    "gps_lon": 13.17927,
    "install_date": "25-03-2020",
    "tariff_plan": "Standard",
    "status": "active",
    "distributor_id": 19,
    "panel_capacity_wp": 750,
    "battery_capacity_wh": 600,
    "num_appliances": 18
  },
  {
    "installation_id": 116,
    "client_name": "andré essomba",
    "client_type": "residential",
    "city": "Nanga-Eboko",
    "region": "Centre",
    "gps_lat": null,
    "gps_lon": null,
    "install_date": "10-07-2020",
    "tariff_plan": "Standard",
    "status": "active",
    "distributor_id": 23,
    "panel_capacity_wp": 750,
    "battery_capacity_wh": 2000,
    "num_appliances": 14
  },
  {
    "installation_id": 117,
    "client_name": "OUSMANOU André",
    "client_type": "residential",
    "city": "Loum",
    "region": "Littoral",
    "gps_lat": 4.102143,
    "gps_lon": 8.982918,
    "install_date": "2020/05/04",
    "tariff_plan": "Basic",
    "status": "active",
    "distributor_id": 19,
    "panel_capacity_wp": 500,
    "battery_capacity_wh": 400,
    "num_appliances": 9
  },
  {
    "installation_id": 118,
    "client_name": "nathalie fotso",
    "client_type": "residential",
    "city": "Bafia",
    "region": "Centre",
    "gps_lat": 3.585766,
    "gps_lon": 12.015799,
    "install_date": "31-10-2020",
    "tariff_plan": "Basic",
    "status": "churned",
    "distributor_id": 38,
    "panel_capacity_wp": 200,
    "battery_capacity_wh": 400,
    "num_appliances": 18
  },
  {
    "installation_id": 119,
    "client_name": "Marcel Entreprise",
    "client_type": "sme",
    "city": "Douala",
    "region": "Littoral",
    "gps_lat": 4.004522,
    "gps_lon": 9.558945,
    "install_date": "2023/02/19",
    "tariff_plan": "Premium",
    "status": "active",
    "distributor_id": 34,
    "panel_capacity_wp": 300,
    "battery_capacity_wh": 600,
    "num_appliances": 7
  },
  {
    "installation_id": 120,
    "client_name": "Centre de Santé Communautaire de Nanga-Eboko",
    "client_type": "health_center",
    "city": "Nanga-Eboko",
    "region": "Centre",
    "gps_lat": 3.268876,
    "gps_lon": 11.889388,
    "install_date": "2020-10-21",
    "tariff_plan": "Premium",
    "status": "churned",
    "distributor_id": 10,
    "panel_capacity_wp": 500,
    "battery_capacity_wh": 2000,
    "num_appliances": 16
  },
  {
    "installation_id": 121,
    "client_name": "MARIE-CLAIRE FOMEKONG",
    "client_type": "residential",
    "city": "Lomié",
    "region": "Est",
    "gps_lat": 4.709157,
    "gps_lon": 14.226926,
    "install_date": "2022-11-08",
    "tariff_plan": "Basic",
    "status": "active",
    "distributor_id": 21,
    "panel_capacity_wp": 1000,
    "battery_capacity_wh": 1000,
    "num_appliances": 10
  },
  {
    "installation_id": 122,
    "client_name": "isabelle Commerce",
    "client_type": "sme",
    "city": "Mbanga",
    "region": "Littoral",
    "gps_lat": 3.512825,
    "gps_lon": 10.20332,
    "install_date": "2020/10/17",
    "tariff_plan": "Basic",
    "status": "active",
    "distributor_id": 4,
    "panel_capacity_wp": 300,
    "battery_capacity_wh": 400,
    "num_appliances": 4
  },
  {
    "installation_id": 123,
    "client_name": "danielle mebada",
    "client_type": "residential",
    "city": "Bafang",
    "region": "Ouest",
    "gps_lat": 5.297912,
    "gps_lon": 10.926559,
    "install_date": "06/02/2025",
    "tariff_plan": "Standard",
    "status": "maintenance",
    "distributor_id": 33,
    "panel_capacity_wp": 750,
    "battery_capacity_wh": 2000,
    "num_appliances": 18
  },
  {
    "installation_id": 124,
    "client_name": "PATRICK KUETE",
    "client_type": "residential",
    "city": "Obala",
    "region": "Centre",
    "gps_lat": 4.266175,
    "gps_lon": 11.524353,
    "install_date": "01/02/2023",
    "tariff_plan": "Standard",
    "status": "active",
    "distributor_id": 4,
    "panel_capacity_wp": 500,
    "battery_capacity_wh": 4000,
    "num_appliances": 18
  },
  {
    "installation_id": 125,
    "client_name": "Centre de Santé Intégré de Mbanga",
    "client_type": "health_center",
    "city": "Mbanga",
    "region": "Littoral",
    "gps_lat": 4.700355,
    "gps_lon": 9.898781,
    "install_date": "27-07-2022",
    "tariff_plan": "Standard",
    "status": "active",
    "distributor_id": 11,
    "panel_capacity_wp": 300,
    "battery_capacity_wh": 4000,
    "num_appliances": 3
  },
  {
    "installation_id": 126,
    "client_name": "Lycée Technique de Edéa 3",
    "client_type": "school",
    "city": "Edéa",
    "region": "Littoral",
    "gps_lat": 3.472835,
    "gps_lon": 10.17044,
    "install_date": "28-11-2024",
    "tariff_plan": "Standard",
    "status": "active",
    "distributor_id": 5,
    "panel_capacity_wp": 1000,
    "battery_capacity_wh": 4000,
    "num_appliances": 6
  },
  {
    "installation_id": 127,
    "client_name": "Brigitte GUIDIGUIS",
    "client_type": "residential",
    "city": "Mbouda",
    "region": "Ouest",
    "gps_lat": 4.91268,
    "gps_lon": 10.118755,
    "install_date": "2021/05/14",
    "tariff_plan": "Premium",
    "status": "suspended",
    "distributor_id": 6,
    "panel_capacity_wp": 750,
    "battery_capacity_wh": 400,
    "num_appliances": 11
  },
  {
    "installation_id": 128,
    "client_name": "paul Entreprise",
    "client_type": "sme",
    "city": "Mbanga",
    "region": "Littoral",
    "gps_lat": 4.469934,
    "gps_lon": 10.302825,
    "install_date": "2022-12-16",
    "tariff_plan": "Basic",
    "status": "active",
    "distributor_id": 25,
    "panel_capacity_wp": 150,
    "battery_capacity_wh": 1000,
    "num_appliances": 11
  },
  {
    "installation_id": 129,
    "client_name": "didier SA",
    "client_type": "sme",
    "city": "Obala",
    "region": "Centre",
    "gps_lat": 3.273982,
    "gps_lon": 11.35566,
    "install_date": "2024-04-19",
    "tariff_plan": "Basic",
    "status": "suspended",
    "distributor_id": 14,
    "panel_capacity_wp": 150,
    "battery_capacity_wh": 4000,
    "num_appliances": 18
  },
  {
    "installation_id": 130,
    "client_name": "Kevin ETOA",
    "client_type": "residential",
    "city": "Ngaoundéré",
    "region": "Adamaoua",
    "gps_lat": 7.682058,
    "gps_lon": 12.925836,
    "install_date": "12-04-2021",
    "tariff_plan": "Basic",
    "status": "active",
    "distributor_id": 22,
    "panel_capacity_wp": 1000,
    "battery_capacity_wh": 2000,
    "num_appliances": 3
  },
  {
    "installation_id": 131,
    "client_name": "Mariama FOTSO",
    "client_type": "residential",
    "city": "Nkambe",
    "region": "Nord-Ouest",
    "gps_lat": 5.450556,
    "gps_lon": 10.803521,
    "install_date": "08-03-2022",
    "tariff_plan": "Basic",
    "status": "active",
    "distributor_id": 24,
    "panel_capacity_wp": 300,
    "battery_capacity_wh": 2000,
    "num_appliances": 8
  },
  {
    "installation_id": 132,
    "client_name": "ZOUERA EKANI",
    "client_type": "residential",
    "city": "Mbouda",
    "region": "Ouest",
    "gps_lat": 4.915362,
    "gps_lon": 10.557968,
    "install_date": "2024/02/03",
    "tariff_plan": "Standard",
    "status": "churned",
    "distributor_id": 37,
    "panel_capacity_wp": 200,
    "battery_capacity_wh": 600,
    "num_appliances": 6
  },
  {
    "installation_id": 133,
    "client_name": "Fabrice ONANA",
    "client_type": "residential",
    "city": "Mbalmayo",
    "region": "Centre",
    "gps_lat": 4.561389,
    "gps_lon": 11.624213,
    "install_date": "28/04/2023",
    "tariff_plan": "Basic",
    "status": "maintenance",
    "distributor_id": 4,
    "panel_capacity_wp": 300,
    "battery_capacity_wh": 2000,
    "num_appliances": 18
  },
  {
    "installation_id": 134,
    "client_name": "Centre de Santé Intégré de Kumbo",
    "client_type": "health_center",
    "city": "Kumbo",
    "region": "Nord-Ouest",
    "gps_lat": 6.082061,
    "gps_lon": 10.320744,
    "install_date": "19-01-2022",
    "tariff_plan": "Standard",
    "status": "active",
    "distributor_id": 28,
    "panel_capacity_wp": 150,
    "battery_capacity_wh": 2000,
    "num_appliances": 3
  },
  {
    "installation_id": 135,
    "client_name": "HAMADOU PME",
    "client_type": "sme",
    "city": "Bafia",
    "region": "Centre",
    "gps_lat": 3.791343,
    "gps_lon": 10.901181,
    "install_date": "13/06/2023",
    "tariff_plan": "Custom",
    "status": "maintenance",
    "distributor_id": 33,
    "panel_capacity_wp": 1000,
    "battery_capacity_wh": 1000,
    "num_appliances": 6
  },
  {
    "installation_id": 136,
    "client_name": "MBARGA Entreprise",
    "client_type": "sme",
    "city": "Kousseri",
    "region": "Extrême-Nord",
    "gps_lat": 12.091834,
    "gps_lon": 14.280141,
    "install_date": "2024-03-07",
    "tariff_plan": "Basic",
    "status": "maintenance",
    "distributor_id": 3,
    "panel_capacity_wp": 150,
    "battery_capacity_wh": 1000,
    "num_appliances": 8
  },
  {
    "installation_id": 137,
    "client_name": "fabrice kuete",
    "client_type": "residential",
    "city": "Dschang",
    "region": "Ouest",
    "gps_lat": 5.954566,
    "gps_lon": 9.627411,
    "install_date": "05-05-2025",
    "tariff_plan": "Basic",
    "status": "active",
    "distributor_id": 36,
    "panel_capacity_wp": 150,
    "battery_capacity_wh": 400,
    "num_appliances": 9
  },
  {
    "installation_id": 138,
    "client_name": "DIDIER FEUDJIO",
    "client_type": "residential",
    "city": "Bafia",
    "region": "Centre",
    "gps_lat": null,
    "gps_lon": null,
    "install_date": "31/05/2024",
    "tariff_plan": "Standard",
    "status": "maintenance",
    "distributor_id": 30,
    "panel_capacity_wp": 150,
    "battery_capacity_wh": 4000,
    "num_appliances": 13
  },
  {
    "installation_id": 139,
    "client_name": "HERVÉ DAIROU",
    "client_type": "residential",
    "city": "Kumbo",
    "region": "Nord-Ouest",
    "gps_lat": 5.385371,
    "gps_lon": 9.632219,
    "install_date": "2020/11/21",
    "tariff_plan": "Basic",
    "status": "active",
    "distributor_id": 37,
    "panel_capacity_wp": 150,
    "battery_capacity_wh": 2000,
    "num_appliances": 13
  },
  {
    "installation_id": 140,
    "client_name": "cédric mvondo",
    "client_type": "residential",
    "city": "Mbalmayo",
    "region": "Centre",
    "gps_lat": 3.998941,
    "gps_lon": 11.731623,
    "install_date": "2020/09/26",
    "tariff_plan": "Premium",
    "status": "active",
    "distributor_id": 2,
    "panel_capacity_wp": 200,
    "battery_capacity_wh": 400,
    "num_appliances": 13
  },
  {
    "installation_id": 141,
    "client_name": "Brigitte Entreprise",
    "client_type": "sme",
    "city": "Mbanga",
    "region": "Littoral",
    "gps_lat": 3.48786,
    "gps_lon": 9.563399,
    "install_date": "26-08-2021",
    "tariff_plan": "Basic",
    "status": "churned",
    "distributor_id": 22,
    "panel_capacity_wp": 150,
    "battery_capacity_wh": 2000,
    "num_appliances": 3
  },
  {
    "installation_id": 142,
    "client_name": "Lycée Technique de Edéa 3",
    "client_type": "school",
    "city": "Edéa",
    "region": "Littoral",
    "gps_lat": null,
    "gps_lon": null,
    "install_date": "10/11/2021",
    "tariff_plan": "Standard",
    "status": "active",
    "distributor_id": 13,
    "panel_capacity_wp": 750,
    "battery_capacity_wh": 2000,
    "num_appliances": 17
  },
  {
    "installation_id": 143,
    "client_name": "Centre de Santé Intégré de Edéa",
    "client_type": "health_center",
    "city": "Edéa",
    "region": "Littoral",
    "gps_lat": 3.308479,
    "gps_lon": 9.655307,
    "install_date": "2021/10/15",
    "tariff_plan": "Basic",
    "status": "active",
    "distributor_id": 3,
    "panel_capacity_wp": 150,
    "battery_capacity_wh": 1000,
    "num_appliances": 10
  },
  {
    "installation_id": 144,
    "client_name": "NATHALIE ETOA",
    "client_type": "residential",
    "city": "Bafoussam",
    "region": "Ouest",
    "gps_lat": 5.509024,
    "gps_lon": 10.32522,
    "install_date": "26-07-2023",
    "tariff_plan": "Premium",
    "status": "active",
    "distributor_id": 24,
    "panel_capacity_wp": 1000,
    "battery_capacity_wh": 2000,
    "num_appliances": 13
  },
  {
    "installation_id": 145,
    "client_name": "estelle etoa",
    "client_type": "residential",
    "city": "Nanga-Eboko",
    "region": "Centre",
    "gps_lat": 4.448857,
    "gps_lon": 12.233785,
    "install_date": "10/10/2023",
    "tariff_plan": "Basic",
    "status": "active",
    "distributor_id": 18,
    "panel_capacity_wp": 300,
    "battery_capacity_wh": 400,
    "num_appliances": 4
  },
  {
    "installation_id": 146,
    "client_name": "JACQUES MAÏGARI",
    "client_type": "residential",
    "city": "Mbalmayo",
    "region": "Centre",
    "gps_lat": 3.110618,
    "gps_lon": 10.969844,
    "install_date": "16-04-2025",
    "tariff_plan": "Standard",
    "status": "active",
    "distributor_id": 19,
    "panel_capacity_wp": 150,
    "battery_capacity_wh": 1000,
    "num_appliances": 15
  },
  {
    "installation_id": 147,
    "client_name": "HERVÉ Boutique",
    "client_type": "sme",
    "city": "Wum",
    "region": "Nord-Ouest",
    "gps_lat": null,
    "gps_lon": null,
    "install_date": "2023/08/15",
    "tariff_plan": "Basic",
    "status": "active",
    "distributor_id": 4,
    "panel_capacity_wp": 150,
    "battery_capacity_wh": 600,
    "num_appliances": 4
  },
  {
    "installation_id": 148,
    "client_name": "jacques ousmanou",
    "client_type": "residential",
    "city": "Nkongsamba",
    "region": "Littoral",
    "gps_lat": 4.294394,
    "gps_lon": 9.281092,
    "install_date": "27/12/2024",
    "tariff_plan": "Premium",
    "status": "active",
    "distributor_id": 24,
    "panel_capacity_wp": 500,
    "battery_capacity_wh": 400,
    "num_appliances": 6
  },
  {
    "installation_id": 149,
    "client_name": "HERVÉ ETOA",
    "client_type": "residential",
    "city": "Mbanga",
    "region": "Littoral",
    "gps_lat": 4.578352,
    "gps_lon": 9.535494,
    "install_date": "2022-07-14",
    "tariff_plan": "Standard",
    "status": "suspended",
    "distributor_id": 24,
    "panel_capacity_wp": 750,
    "battery_capacity_wh": 2000,
    "num_appliances": 5
  },
  {
    "installation_id": 150,
    "client_name": "Vanessa MENGUE",
    "client_type": "residential",
    "city": "Mbouda",
    "region": "Ouest",
    "gps_lat": 4.690803,
    "gps_lon": 9.756814,
    "install_date": "2021/12/27",
    "tariff_plan": "Basic",
    "status": "maintenance",
    "distributor_id": 17,
    "panel_capacity_wp": 150,
    "battery_capacity_wh": 2000,
    "num_appliances": 7
  },
  {
    "installation_id": 151,
    "client_name": "Fabrice TAGNE",
    "client_type": "residential",
    "city": "Loum",
    "region": "Littoral",
    "gps_lat": 3.924279,
    "gps_lon": 10.328275,
    "install_date": "2022/11/18",
    "tariff_plan": "Basic",
    "status": "active",
    "distributor_id": 6,
    "panel_capacity_wp": 1000,
    "battery_capacity_wh": 600,
    "num_appliances": 13
  },
  {
    "installation_id": 152,
    "client_name": "claude nkouam",
    "client_type": "residential",
    "city": "Tignère",
    "region": "Adamaoua",
    "gps_lat": 7.474472,
    "gps_lon": 12.328902,
    "install_date": "2021-11-15",
    "tariff_plan": "Basic",
    "status": "active",
    "distributor_id": 15,
    "panel_capacity_wp": 750,
    "battery_capacity_wh": 4000,
    "num_appliances": 13
  },
  {
    "installation_id": 153,
    "client_name": "AÏSSATOU FOMEKONG",
    "client_type": "residential",
    "city": "Foumban",
    "region": "Ouest",
    "gps_lat": 5.141145,
    "gps_lon": 11.137525,
    "install_date": "23/11/2020",
    "tariff_plan": "Standard",
    "status": "active",
    "distributor_id": 36,
    "panel_capacity_wp": 500,
    "battery_capacity_wh": 4000,
    "num_appliances": 4
  },
  {
    "installation_id": 154,
    "client_name": "Pauline NKOLO",
    "client_type": "residential",
    "city": "Kumbo",
    "region": "Nord-Ouest",
    "gps_lat": 6.591284,
    "gps_lon": 10.629768,
    "install_date": "29-12-2023",
    "tariff_plan": "Premium",
    "status": "active",
    "distributor_id": 21,
    "panel_capacity_wp": 200,
    "battery_capacity_wh": 2000,
    "num_appliances": 18
  },
  {
    "installation_id": 155,
    "client_name": "ibrahim fotso",
    "client_type": "residential",
    "city": "Yaoundé",
    "region": "Centre",
    "gps_lat": 4.083565,
    "gps_lon": 11.13262,
    "install_date": "2022-10-01",
    "tariff_plan": "Basic",
    "status": "active",
    "distributor_id": 8,
    "panel_capacity_wp": 750,
    "battery_capacity_wh": 1000,
    "num_appliances": 4
  },
  {
    "installation_id": 156,
    "client_name": "OWONA SA",
    "client_type": "sme",
    "city": "Edéa",
    "region": "Littoral",
    "gps_lat": 3.524687,
    "gps_lon": 9.335692,
    "install_date": "2024/11/06",
    "tariff_plan": "Custom",
    "status": "active",
    "distributor_id": 13,
    "panel_capacity_wp": 750,
    "battery_capacity_wh": 600,
    "num_appliances": 6
  },
  {
    "installation_id": 157,
    "client_name": "Centre de Santé de Nkongsamba",
    "client_type": "health_center",
    "city": "Nkongsamba",
    "region": "Littoral",
    "gps_lat": 3.688488,
    "gps_lon": 9.786685,
    "install_date": "16/12/2024",
    "tariff_plan": "Basic",
    "status": "active",
    "distributor_id": 22,
    "panel_capacity_wp": 150,
    "battery_capacity_wh": 400,
    "num_appliances": 10
  },
  {
    "installation_id": 158,
    "client_name": "BRIGITTE Entreprise",
    "client_type": "sme",
    "city": "Dschang",
    "region": "Ouest",
    "gps_lat": 4.889017,
    "gps_lon": 11.06003,
    "install_date": "03-06-2020",
    "tariff_plan": "Basic",
    "status": "active",
    "distributor_id": 37,
    "panel_capacity_wp": 200,
    "battery_capacity_wh": 2000,
    "num_appliances": 11
  },
  {
    "installation_id": 159,
    "client_name": "Aminatou KUATE",
    "client_type": "residential",
    "city": "Yokadouma",
    "region": "Est",
    "gps_lat": 4.070594,
    "gps_lon": 14.343059,
    "install_date": "05-07-2021",
    "tariff_plan": "Standard",
    "status": "active",
    "distributor_id": 5,
    "panel_capacity_wp": 300,
    "battery_capacity_wh": 4000,
    "num_appliances": 6
  },
  {
    "installation_id": 160,
    "client_name": "MANGA Oumarou",
    "client_type": "residential",
    "city": "Mbalmayo",
    "region": "Centre",
    "gps_lat": 3.336053,
    "gps_lon": 11.900854,
    "install_date": "07-02-2023",
    "tariff_plan": "Standard",
    "status": "active",
    "distributor_id": 21,
    "panel_capacity_wp": 300,
    "battery_capacity_wh": 600,
    "num_appliances": 16
  },
  {
    "installation_id": 161,
    "client_name": "FABRICE DAIROU",
    "client_type": "residential",
    "city": "Douala",
    "region": "Littoral",
    "gps_lat": 3.71191,
    "gps_lon": 9.469076,
    "install_date": "12/05/2021",
    "tariff_plan": "Basic",
    "status": "active",
    "distributor_id": 18,
    "panel_capacity_wp": 200,
    "battery_capacity_wh": 600,
    "num_appliances": 12
  },
  {
    "installation_id": 162,
    "client_name": "AMINATOU TAGNE",
    "client_type": "residential",
    "city": "Fundong",
    "region": "Nord-Ouest",
    "gps_lat": 6.221874,
    "gps_lon": 10.848928,
    "install_date": "09-07-2021",
    "tariff_plan": "Standard",
    "status": "active",
    "distributor_id": 21,
    "panel_capacity_wp": 150,
    "battery_capacity_wh": 400,
    "num_appliances": 14
  },
  {
    "installation_id": 163,
    "client_name": "FRANCK FEUDJIO",
    "client_type": "residential",
    "city": "Fundong",
    "region": "Nord-Ouest",
    "gps_lat": 6.112125,
    "gps_lon": 9.432281,
    "install_date": "2021/12/29",
    "tariff_plan": "Basic",
    "status": "active",
    "distributor_id": 30,
    "panel_capacity_wp": 750,
    "battery_capacity_wh": 2000,
    "num_appliances": 11
  },
  {
    "installation_id": 164,
    "client_name": "carole guidiguis",
    "client_type": "residential",
    "city": "Nanga-Eboko",
    "region": "Centre",
    "gps_lat": 3.240557,
    "gps_lon": 10.84022,
    "install_date": "2023-10-30",
    "tariff_plan": "Basic",
    "status": "active",
    "distributor_id": 1,
    "panel_capacity_wp": 150,
    "battery_capacity_wh": 2000,
    "num_appliances": 3
  },
  {
    "installation_id": 165,
    "client_name": "ADAMOU MANGA",
    "client_type": "residential",
    "city": "Fundong",
    "region": "Nord-Ouest",
    "gps_lat": 5.554243,
    "gps_lon": 10.660564,
    "install_date": "2024/11/13",
    "tariff_plan": "Standard",
    "status": "active",
    "distributor_id": 36,
    "panel_capacity_wp": 750,
    "battery_capacity_wh": 1000,
    "num_appliances": 5
  },
  {
    "installation_id": 166,
    "client_name": "MANGA SA",
    "client_type": "sme",
    "city": "Meiganga",
    "region": "Adamaoua",
    "gps_lat": 7.107558,
    "gps_lon": 12.046531,
    "install_date": "2023/01/18",
    "tariff_plan": "Basic",
    "status": "active",
    "distributor_id": 7,
    "panel_capacity_wp": 150,
    "battery_capacity_wh": 400,
    "num_appliances": 6
  },
  {
    "installation_id": 167,
    "client_name": "Estelle HAMADOU",
    "client_type": "residential",
    "city": "Abong-Mbang",
    "region": "Est",
    "gps_lat": 4.086213,
    "gps_lon": 13.747042,
    "install_date": "2021-06-06",
    "tariff_plan": "Custom",
    "status": "active",
    "distributor_id": 31,
    "panel_capacity_wp": 500,
    "battery_capacity_wh": 4000,
    "num_appliances": 11
  },
  {
    "installation_id": 168,
    "client_name": "aminatou Entreprise",
    "client_type": "sme",
    "city": "Lomié",
    "region": "Est",
    "gps_lat": 4.897643,
    "gps_lon": 14.238713,
    "install_date": "01-07-2024",
    "tariff_plan": "Premium",
    "status": "active",
    "distributor_id": 22,
    "panel_capacity_wp": 300,
    "battery_capacity_wh": 400,
    "num_appliances": 15
  },
  {
    "installation_id": 169,
    "client_name": "Brigitte MVONDO",
    "client_type": "residential",
    "city": "Mbanga",
    "region": "Littoral",
    "gps_lat": 4.760495,
    "gps_lon": 8.963083,
    "install_date": "22-05-2020",
    "tariff_plan": "Basic",
    "status": "churned",
    "distributor_id": 20,
    "panel_capacity_wp": 1000,
    "battery_capacity_wh": 400,
    "num_appliances": 17
  },
  {
    "installation_id": 170,
    "client_name": "Centre de Santé Communautaire de Kumbo",
    "client_type": "health_center",
    "city": "Kumbo",
    "region": "Nord-Ouest",
    "gps_lat": 6.624781,
    "gps_lon": 9.404314,
    "install_date": "2023-05-26",
    "tariff_plan": "Basic",
    "status": "active",
    "distributor_id": 34,
    "panel_capacity_wp": 200,
    "battery_capacity_wh": 400,
    "num_appliances": 5
  },
  {
    "installation_id": 171,
    "client_name": "VANESSA NGANOU",
    "client_type": "residential",
    "city": "Kumbo",
    "region": "Nord-Ouest",
    "gps_lat": 6.670826,
    "gps_lon": 10.108743,
    "install_date": "2023-09-23",
    "tariff_plan": "Premium",
    "status": "churned",
    "distributor_id": 2,
    "panel_capacity_wp": 1000,
    "battery_capacity_wh": 400,
    "num_appliances": 6
  },
  {
    "installation_id": 172,
    "client_name": "Centre de Santé Intégré de Tignère",
    "client_type": "health_center",
    "city": "Tignère",
    "region": "Adamaoua",
    "gps_lat": 6.589212,
    "gps_lon": 12.854032,
    "install_date": "26-03-2024",
    "tariff_plan": "Basic",
    "status": "suspended",
    "distributor_id": 14,
    "panel_capacity_wp": 200,
    "battery_capacity_wh": 2000,
    "num_appliances": 12
  },
  {
    "installation_id": 173,
    "client_name": "marcel tchinda",
    "client_type": "residential",
    "city": "Mbanga",
    "region": "Littoral",
    "gps_lat": 3.7938,
    "gps_lon": 10.059627,
    "install_date": "31-05-2022",
    "tariff_plan": "Basic",
    "status": "active",
    "distributor_id": 23,
    "panel_capacity_wp": 200,
    "battery_capacity_wh": 1000,
    "num_appliances": 11
  },
  {
    "installation_id": 174,
    "client_name": "NADÈGE BEKOLO",
    "client_type": "residential",
    "city": "Nkongsamba",
    "region": "Littoral",
    "gps_lat": 3.760004,
    "gps_lon": 9.901426,
    "install_date": "2023/02/17",
    "tariff_plan": "Standard",
    "status": "suspended",
    "distributor_id": 32,
    "panel_capacity_wp": 500,
    "battery_capacity_wh": 1000,
    "num_appliances": 6
  },
  {
    "installation_id": 175,
    "client_name": "BRIGITTE NGUIMO",
    "client_type": "residential",
    "city": "Abong-Mbang",
    "region": "Est",
    "gps_lat": 5.182158,
    "gps_lon": 12.914031,
    "install_date": "2020/11/01",
    "tariff_plan": "Basic",
    "status": "active",
    "distributor_id": 3,
    "panel_capacity_wp": 200,
    "battery_capacity_wh": 600,
    "num_appliances": 10
  },
  {
    "installation_id": 176,
    "client_name": "Franck EKANI",
    "client_type": "residential",
    "city": "Lomié",
    "region": "Est",
    "gps_lat": 5.386695,
    "gps_lon": 13.441139,
    "install_date": "2025-05-26",
    "tariff_plan": "Custom",
    "status": "suspended",
    "distributor_id": 18,
    "panel_capacity_wp": 1000,
    "battery_capacity_wh": 600,
    "num_appliances": 3
  },
  {
    "installation_id": 177,
    "client_name": "Jean-Baptiste NKOLO",
    "client_type": "residential",
    "city": "Bamenda",
    "region": "Nord-Ouest",
    "gps_lat": 6.557883,
    "gps_lon": 10.924534,
    "install_date": "07/03/2024",
    "tariff_plan": "Standard",
    "status": "active",
    "distributor_id": 27,
    "panel_capacity_wp": 500,
    "battery_capacity_wh": 2000,
    "num_appliances": 17
  },
  {
    "installation_id": 178,
    "client_name": "PATRICK ETOA",
    "client_type": "residential",
    "city": "Kumbo",
    "region": "Nord-Ouest",
    "gps_lat": 5.542043,
    "gps_lon": 9.526759,
    "install_date": "31/08/2020",
    "tariff_plan": "Standard",
    "status": "active",
    "distributor_id": 19,
    "panel_capacity_wp": 200,
    "battery_capacity_wh": 400,
    "num_appliances": 14
  },
  {
    "installation_id": 179,
    "client_name": "BEKOLO Lionel",
    "client_type": "residential",
    "city": "Bafia",
    "region": "Centre",
    "gps_lat": 3.137349,
    "gps_lon": 10.748598,
    "install_date": "17/08/2022",
    "tariff_plan": "Basic",
    "status": "active",
    "distributor_id": 12,
    "panel_capacity_wp": 300,
    "battery_capacity_wh": 1000,
    "num_appliances": 16
  },
  {
    "installation_id": 180,
    "client_name": "vanessa mengue",
    "client_type": "residential",
    "city": "Mora",
    "region": "Extrême-Nord",
    "gps_lat": 11.049206,
    "gps_lon": 14.969938,
    "install_date": "21-04-2021",
    "tariff_plan": "Standard",
    "status": "active",
    "distributor_id": 34,
    "panel_capacity_wp": 200,
    "battery_capacity_wh": 2000,
    "num_appliances": 10
  },
  {
    "installation_id": 181,
    "client_name": "mahamat tchuenkam",
    "client_type": "residential",
    "city": "Kumbo",
    "region": "Nord-Ouest",
    "gps_lat": 6.671571,
    "gps_lon": 10.097842,
    "install_date": "2022-09-03",
    "tariff_plan": "Standard",
    "status": "maintenance",
    "distributor_id": 1,
    "panel_capacity_wp": 150,
    "battery_capacity_wh": 2000,
    "num_appliances": 5
  },
  {
    "installation_id": 182,
    "client_name": "AÏSSATOU KUETE",
    "client_type": "residential",
    "city": "Dschang",
    "region": "Ouest",
    "gps_lat": 6.178371,
    "gps_lon": 10.659435,
    "install_date": "10/04/2022",
    "tariff_plan": "Custom",
    "status": "active",
    "distributor_id": 9,
    "panel_capacity_wp": 300,
    "battery_capacity_wh": 1000,
    "num_appliances": 11
  },
  {
    "installation_id": 183,
    "client_name": "serge kuate",
    "client_type": "residential",
    "city": "Bafang",
    "region": "Ouest",
    "gps_lat": null,
    "gps_lon": null,
    "install_date": "2023-03-23",
    "tariff_plan": "Basic",
    "status": "active",
    "distributor_id": 37,
    "panel_capacity_wp": 200,
    "battery_capacity_wh": 2000,
    "num_appliances": 18
  },
  {
    "installation_id": 184,
    "client_name": "ALAIN ELLA",
    "client_type": "residential",
    "city": "Wum",
    "region": "Nord-Ouest",
    "gps_lat": 6.574057,
    "gps_lon": 10.834404,
    "install_date": "2022/09/03",
    "tariff_plan": "Basic",
    "status": "churned",
    "distributor_id": 8,
    "panel_capacity_wp": 200,
    "battery_capacity_wh": 2000,
    "num_appliances": 13
  },
  {
    "installation_id": 185,
    "client_name": "ARMAND EKANI",
    "client_type": "residential",
    "city": "Yagoua",
    "region": "Extrême-Nord",
    "gps_lat": 11.813633,
    "gps_lon": 13.696233,
    "install_date": "2024-09-26",
    "tariff_plan": "Standard",
    "status": "active",
    "distributor_id": 36,
    "panel_capacity_wp": 750,
    "battery_capacity_wh": 1000,
    "num_appliances": 4
  },
  {
    "installation_id": 186,
    "client_name": "KEVIN HAMADOU",
    "client_type": "residential",
    "city": "Tignère",
    "region": "Adamaoua",
    "gps_lat": null,
    "gps_lon": null,
    "install_date": "2024-10-27",
    "tariff_plan": "Basic",
    "status": "active",
    "distributor_id": 8,
    "panel_capacity_wp": 150,
    "battery_capacity_wh": 600,
    "num_appliances": 17
  },
  {
    "installation_id": 187,
    "client_name": "Centre de Santé de Douala",
    "client_type": "health_center",
    "city": "Douala",
    "region": "Littoral",
    "gps_lat": 4.671997,
    "gps_lon": 10.429042,
    "install_date": "20-08-2020",
    "tariff_plan": "Basic",
    "status": "active",
    "distributor_id": 33,
    "panel_capacity_wp": 750,
    "battery_capacity_wh": 2000,
    "num_appliances": 16
  },
  {
    "installation_id": 188,
    "client_name": "KAMGA Commerce",
    "client_type": "sme",
    "city": "Tignère",
    "region": "Adamaoua",
    "gps_lat": 6.669179,
    "gps_lon": 12.553525,
    "install_date": "14/10/2022",
    "tariff_plan": "Standard",
    "status": "active",
    "distributor_id": 4,
    "panel_capacity_wp": 150,
    "battery_capacity_wh": 2000,
    "num_appliances": 13
  },
  {
    "installation_id": 189,
    "client_name": "Fabrice NGANOU",
    "client_type": "residential",
    "city": "Yaoundé",
    "region": "Centre",
    "gps_lat": 3.199674,
    "gps_lon": 11.072293,
    "install_date": "01-10-2020",
    "tariff_plan": "Standard",
    "status": "active",
    "distributor_id": 35,
    "panel_capacity_wp": 200,
    "battery_capacity_wh": 2000,
    "num_appliances": 13
  },
  {
    "installation_id": 190,
    "client_name": "MAÏGARI Boris",
    "client_type": "residential",
    "city": "Nkambe",
    "region": "Nord-Ouest",
    "gps_lat": 5.928939,
    "gps_lon": 10.297852,
    "install_date": "17-05-2023",
    "tariff_plan": "Premium",
    "status": "active",
    "distributor_id": 29,
    "panel_capacity_wp": 200,
    "battery_capacity_wh": 4000,
    "num_appliances": 14
  },
  {
    "installation_id": 191,
    "client_name": "LIONEL KUATE",
    "client_type": "residential",
    "city": "Tignère",
    "region": "Adamaoua",
    "gps_lat": 6.957245,
    "gps_lon": 13.305808,
    "install_date": "21/01/2022",
    "tariff_plan": "Standard",
    "status": "active",
    "distributor_id": 9,
    "panel_capacity_wp": 750,
    "battery_capacity_wh": 2000,
    "num_appliances": 9
  },
  {
    "installation_id": 192,
    "client_name": "NGANOU Entreprise",
    "client_type": "sme",
    "city": "Meiganga",
    "region": "Adamaoua",
    "gps_lat": 7.663381,
    "gps_lon": 13.239221,
    "install_date": "2022-07-05",
    "tariff_plan": "Premium",
    "status": "maintenance",
    "distributor_id": 30,
    "panel_capacity_wp": 200,
    "battery_capacity_wh": 600,
    "num_appliances": 4
  },
  {
    "installation_id": 193,
    "client_name": "Mahamat Entreprise",
    "client_type": "sme",
    "city": "Bamenda",
    "region": "Nord-Ouest",
    "gps_lat": 5.413768,
    "gps_lon": 10.759393,
    "install_date": "2020-07-30",
    "tariff_plan": "Standard",
    "status": "active",
    "distributor_id": 3,
    "panel_capacity_wp": 750,
    "battery_capacity_wh": 600,
    "num_appliances": 3
  },
  {
    "installation_id": 194,
    "client_name": "Sandrine TAGNE",
    "client_type": "residential",
    "city": "Batouri",
    "region": "Est",
    "gps_lat": 4.32619,
    "gps_lon": 14.069613,
    "install_date": "2022/02/26",
    "tariff_plan": "Premium",
    "status": "active",
    "distributor_id": 33,
    "panel_capacity_wp": 1000,
    "battery_capacity_wh": 4000,
    "num_appliances": 9
  },
  {
    "installation_id": 195,
    "client_name": "DJOMO Entreprise",
    "client_type": "sme",
    "city": "Loum",
    "region": "Littoral",
    "gps_lat": 3.260217,
    "gps_lon": 9.359261,
    "install_date": "2024-11-24",
    "tariff_plan": "Premium",
    "status": "active",
    "distributor_id": 20,
    "panel_capacity_wp": 300,
    "battery_capacity_wh": 2000,
    "num_appliances": 18
  },
  {
    "installation_id": 196,
    "client_name": "CES de Mbouda 5",
    "client_type": "school",
    "city": "Mbouda",
    "region": "Ouest",
    "gps_lat": 5.684409,
    "gps_lon": 10.483977,
    "install_date": "18-09-2022",
    "tariff_plan": "Standard",
    "status": "active",
    "distributor_id": 27,
    "panel_capacity_wp": 500,
    "battery_capacity_wh": 600,
    "num_appliances": 9
  },
  {
    "installation_id": 197,
    "client_name": "Laurence EKANI",
    "client_type": "residential",
    "city": "Wum",
    "region": "Nord-Ouest",
    "gps_lat": 6.700787,
    "gps_lon": 9.896995,
    "install_date": "27-08-2020",
    "tariff_plan": "Premium",
    "status": "active",
    "distributor_id": 10,
    "panel_capacity_wp": 500,
    "battery_capacity_wh": 600,
    "num_appliances": 10
  },
  {
    "installation_id": 198,
    "client_name": "École Primaire de Dschang 5",
    "client_type": "school",
    "city": "Dschang",
    "region": "Ouest",
    "gps_lat": 5.770617,
    "gps_lon": 9.728539,
    "install_date": "2023/12/28",
    "tariff_plan": "Basic",
    "status": "churned",
    "distributor_id": 22,
    "panel_capacity_wp": 1000,
    "battery_capacity_wh": 600,
    "num_appliances": 3
  },
  {
    "installation_id": 199,
    "client_name": "Gérard SARL",
    "client_type": "sme",
    "city": "Mbalmayo",
    "region": "Centre",
    "gps_lat": 3.623413,
    "gps_lon": 11.713465,
    "install_date": "17/04/2025",
    "tariff_plan": "Basic",
    "status": "active",
    "distributor_id": 25,
    "panel_capacity_wp": 300,
    "battery_capacity_wh": 1000,
    "num_appliances": 2
  },
  {
    "installation_id": 200,
    "client_name": "Centre de Santé de Nkongsamba",
    "client_type": "health_center",
    "city": "Nkongsamba",
    "region": "Littoral",
    "gps_lat": 4.449443,
    "gps_lon": 9.108138,
    "install_date": "28-02-2021",
    "tariff_plan": "Custom",
    "status": "churned",
    "distributor_id": 13,
    "panel_capacity_wp": 1000,
    "battery_capacity_wh": 4000,
    "num_appliances": 8
  },
  {
    "installation_id": 201,
    "client_name": "laurence maïgari",
    "client_type": "residential",
    "city": "Nkambe",
    "region": "Nord-Ouest",
    "gps_lat": 5.941829,
    "gps_lon": 10.582652,
    "install_date": "28-07-2022",
    "tariff_plan": "Basic",
    "status": "active",
    "distributor_id": 16,
    "panel_capacity_wp": 300,
    "battery_capacity_wh": 1000,
    "num_appliances": 18
  },
  {
    "installation_id": 202,
    "client_name": "OUMAROU HAMADOU",
    "client_type": "residential",
    "city": "Nkambe",
    "region": "Nord-Ouest",
    "gps_lat": 5.84189,
    "gps_lon": 10.072219,
    "install_date": "2024/02/27",
    "tariff_plan": "Basic",
    "status": "churned",
    "distributor_id": 30,
    "panel_capacity_wp": 150,
    "battery_capacity_wh": 4000,
    "num_appliances": 9
  },
  {
    "installation_id": 203,
    "client_name": "Thierry PME",
    "client_type": "sme",
    "city": "Nkongsamba",
    "region": "Littoral",
    "gps_lat": 3.38181,
    "gps_lon": 9.988799,
    "install_date": "17-02-2025",
    "tariff_plan": "Standard",
    "status": "active",
    "distributor_id": 2,
    "panel_capacity_wp": 500,
    "battery_capacity_wh": 4000,
    "num_appliances": 9
  },
  {
    "installation_id": 204,
    "client_name": "BRIGITTE DJOMO",
    "client_type": "residential",
    "city": "Foumban",
    "region": "Ouest",
    "gps_lat": 5.361736,
    "gps_lon": 11.129785,
    "install_date": "2023/01/13",
    "tariff_plan": "Custom",
    "status": "active",
    "distributor_id": 36,
    "panel_capacity_wp": 200,
    "battery_capacity_wh": 1000,
    "num_appliances": 7
  },
  {
    "installation_id": 205,
    "client_name": "BIYONG Boutique",
    "client_type": "sme",
    "city": "Obala",
    "region": "Centre",
    "gps_lat": 4.644364,
    "gps_lon": 11.374934,
    "install_date": "10/10/2024",
    "tariff_plan": "Standard",
    "status": "active",
    "distributor_id": 35,
    "panel_capacity_wp": 500,
    "battery_capacity_wh": 600,
    "num_appliances": 9
  },
  {
    "installation_id": 206,
    "client_name": "ISABELLE FOMEKONG",
    "client_type": "residential",
    "city": "Bertoua",
    "region": "Est",
    "gps_lat": null,
    "gps_lon": null,
    "install_date": "19-06-2024",
    "tariff_plan": "Basic",
    "status": "active",
    "distributor_id": 10,
    "panel_capacity_wp": 150,
    "battery_capacity_wh": 400,
    "num_appliances": 15
  },
  {
    "installation_id": 207,
    "client_name": "ETOA Paul",
    "client_type": "residential",
    "city": "Ngaoundéré",
    "region": "Adamaoua",
    "gps_lat": 7.919797,
    "gps_lon": 13.142555,
    "install_date": "2022/07/02",
    "tariff_plan": "Custom",
    "status": "active",
    "distributor_id": 2,
    "panel_capacity_wp": 150,
    "battery_capacity_wh": 4000,
    "num_appliances": 6
  },
  {
    "installation_id": 208,
    "client_name": "Centre de Santé Intégré de Kumbo",
    "client_type": "health_center",
    "city": "Kumbo",
    "region": "Nord-Ouest",
    "gps_lat": 5.369992,
    "gps_lon": 9.402042,
    "install_date": "2022/04/24",
    "tariff_plan": "Premium",
    "status": "active",
    "distributor_id": 13,
    "panel_capacity_wp": 500,
    "battery_capacity_wh": 400,
    "num_appliances": 13
  },
  {
    "installation_id": 209,
    "client_name": "PATRICK ONANA",
    "client_type": "residential",
    "city": "Yokadouma",
    "region": "Est",
    "gps_lat": 3.977693,
    "gps_lon": 13.080297,
    "install_date": "2022/01/31",
    "tariff_plan": "Premium",
    "status": "active",
    "distributor_id": 30,
    "panel_capacity_wp": 500,
    "battery_capacity_wh": 2000,
    "num_appliances": 17
  },
  {
    "installation_id": 210,
    "client_name": "BELLO Brigitte",
    "client_type": "residential",
    "city": "Bamenda",
    "region": "Nord-Ouest",
    "gps_lat": 5.262734,
    "gps_lon": 10.281154,
    "install_date": "12-11-2020",
    "tariff_plan": "Basic",
    "status": "active",
    "distributor_id": 1,
    "panel_capacity_wp": 750,
    "battery_capacity_wh": 400,
    "num_appliances": 9
  },
  {
    "installation_id": 211,
    "client_name": "BEKOLO Entreprise",
    "client_type": "sme",
    "city": "Nkongsamba",
    "region": "Littoral",
    "gps_lat": 3.268593,
    "gps_lon": 9.015915,
    "install_date": "23/07/2020",
    "tariff_plan": "Basic",
    "status": "active",
    "distributor_id": 37,
    "panel_capacity_wp": 200,
    "battery_capacity_wh": 1000,
    "num_appliances": 2
  },
  {
    "installation_id": 212,
    "client_name": "Christelle BEKOLO",
    "client_type": "residential",
    "city": "Obala",
    "region": "Centre",
    "gps_lat": 4.181971,
    "gps_lon": 12.096196,
    "install_date": "21/07/2023",
    "tariff_plan": "Standard",
    "status": "active",
    "distributor_id": 38,
    "panel_capacity_wp": 750,
    "battery_capacity_wh": 2000,
    "num_appliances": 12
  },
  {
    "installation_id": 213,
    "client_name": "Cédric TCHUENKAM",
    "client_type": "residential",
    "city": "Nkambe",
    "region": "Nord-Ouest",
    "gps_lat": 5.547272,
    "gps_lon": 10.92866,
    "install_date": "2020/10/30",
    "tariff_plan": "Standard",
    "status": "active",
    "distributor_id": 9,
    "panel_capacity_wp": 150,
    "battery_capacity_wh": 1000,
    "num_appliances": 14
  },
  {
    "installation_id": 214,
    "client_name": "HAMIDOU NKOLO",
    "client_type": "residential",
    "city": "Edéa",
    "region": "Littoral",
    "gps_lat": 4.145438,
    "gps_lon": 8.915633,
    "install_date": "30-12-2023",
    "tariff_plan": "Standard",
    "status": "active",
    "distributor_id": 2,
    "panel_capacity_wp": 500,
    "battery_capacity_wh": 600,
    "num_appliances": 14
  },
  {
    "installation_id": 215,
    "client_name": "Pauline DAIROU",
    "client_type": "residential",
    "city": "Yaoundé",
    "region": "Centre",
    "gps_lat": 3.123125,
    "gps_lon": 10.845726,
    "install_date": "15/10/2020",
    "tariff_plan": "Basic",
    "status": "active",
    "distributor_id": 19,
    "panel_capacity_wp": 1000,
    "battery_capacity_wh": 2000,
    "num_appliances": 12
  },
  {
    "installation_id": 216,
    "client_name": "Josiane FOUDA",
    "client_type": "residential",
    "city": "Mbalmayo",
    "region": "Centre",
    "gps_lat": 4.350939,
    "gps_lon": 11.04024,
    "install_date": "14-10-2022",
    "tariff_plan": "Standard",
    "status": "active",
    "distributor_id": 7,
    "panel_capacity_wp": 150,
    "battery_capacity_wh": 600,
    "num_appliances": 15
  },
  {
    "installation_id": 217,
    "client_name": "MAÏGARI Armand",
    "client_type": "residential",
    "city": "Loum",
    "region": "Littoral",
    "gps_lat": 3.300538,
    "gps_lon": 10.39794,
    "install_date": "20/08/2023",
    "tariff_plan": "Standard",
    "status": "active",
    "distributor_id": 36,
    "panel_capacity_wp": 750,
    "battery_capacity_wh": 4000,
    "num_appliances": 12
  },
  {
    "installation_id": 218,
    "client_name": "Kevin DAIROU",
    "client_type": "residential",
    "city": "Loum",
    "region": "Littoral",
    "gps_lat": 4.392539,
    "gps_lon": 10.182765,
    "install_date": "18/06/2023",
    "tariff_plan": "Standard",
    "status": "maintenance",
    "distributor_id": 1,
    "panel_capacity_wp": 200,
    "battery_capacity_wh": 1000,
    "num_appliances": 11
  },
  {
    "installation_id": 219,
    "client_name": "FOMEKONG PME",
    "client_type": "sme",
    "city": "Mbalmayo",
    "region": "Centre",
    "gps_lat": 3.946148,
    "gps_lon": 12.027676,
    "install_date": "02-08-2021",
    "tariff_plan": "Basic",
    "status": "maintenance",
    "distributor_id": 32,
    "panel_capacity_wp": 300,
    "battery_capacity_wh": 1000,
    "num_appliances": 9
  },
  {
    "installation_id": 220,
    "client_name": "nathalie SARL",
    "client_type": "sme",
    "city": "Bafia",
    "region": "Centre",
    "gps_lat": 3.200608,
    "gps_lon": 10.816563,
    "install_date": "2021/04/25",
    "tariff_plan": "Standard",
    "status": "active",
    "distributor_id": 13,
    "panel_capacity_wp": 500,
    "battery_capacity_wh": 1000,
    "num_appliances": 15
  },
  {
    "installation_id": 221,
    "client_name": "NATHALIE ETOA",
    "client_type": "residential",
    "city": "Mbanga",
    "region": "Littoral",
    "gps_lat": 4.811384,
    "gps_lon": 9.439033,
    "install_date": "2025-04-18",
    "tariff_plan": "Premium",
    "status": "active",
    "distributor_id": 9,
    "panel_capacity_wp": 300,
    "battery_capacity_wh": 1000,
    "num_appliances": 17
  },
  {
    "installation_id": 222,
    "client_name": "Thierry PME",
    "client_type": "sme",
    "city": "Mbanga",
    "region": "Littoral",
    "gps_lat": 4.138582,
    "gps_lon": 10.050723,
    "install_date": "19-07-2022",
    "tariff_plan": "Standard",
    "status": "active",
    "distributor_id": 16,
    "panel_capacity_wp": 1000,
    "battery_capacity_wh": 4000,
    "num_appliances": 2
  },
  {
    "installation_id": 223,
    "client_name": "École Publique de Loum 4",
    "client_type": "school",
    "city": "Loum",
    "region": "Littoral",
    "gps_lat": 3.569268,
    "gps_lon": 9.988365,
    "install_date": "23/08/2022",
    "tariff_plan": "Custom",
    "status": "active",
    "distributor_id": 14,
    "panel_capacity_wp": 200,
    "battery_capacity_wh": 1000,
    "num_appliances": 9
  },
  {
    "installation_id": 224,
    "client_name": "ESTELLE FOMEKONG",
    "client_type": "residential",
    "city": "Edéa",
    "region": "Littoral",
    "gps_lat": 4.639236,
    "gps_lon": 10.063471,
    "install_date": "16/05/2023",
    "tariff_plan": "Basic",
    "status": "active",
    "distributor_id": 10,
    "panel_capacity_wp": 750,
    "battery_capacity_wh": 4000,
    "num_appliances": 15
  },
  {
    "installation_id": 225,
    "client_name": "Marcel MAÏGARI",
    "client_type": "residential",
    "city": "Fundong",
    "region": "Nord-Ouest",
    "gps_lat": 6.740239,
    "gps_lon": 9.414175,
    "install_date": "23/03/2023",
    "tariff_plan": "Basic",
    "status": "active",
    "distributor_id": 3,
    "panel_capacity_wp": 1000,
    "battery_capacity_wh": 4000,
    "num_appliances": 3
  },
  {
    "installation_id": 226,
    "client_name": "jean-baptiste fouda",
    "client_type": "residential",
    "city": "Tignère",
    "region": "Adamaoua",
    "gps_lat": 7.30867,
    "gps_lon": 13.297477,
    "install_date": "26-12-2022",
    "tariff_plan": "Standard",
    "status": "active",
    "distributor_id": 26,
    "panel_capacity_wp": 200,
    "battery_capacity_wh": 4000,
    "num_appliances": 18
  },
  {
    "installation_id": 227,
    "client_name": "Aïssatou KUATE",
    "client_type": "residential",
    "city": "Lomié",
    "region": "Est",
    "gps_lat": 5.249781,
    "gps_lon": 13.21706,
    "install_date": "16-01-2022",
    "tariff_plan": "Basic",
    "status": "active",
    "distributor_id": 38,
    "panel_capacity_wp": 300,
    "battery_capacity_wh": 400,
    "num_appliances": 17
  },
  {
    "installation_id": 228,
    "client_name": "hamidou Entreprise",
    "client_type": "sme",
    "city": "Bafoussam",
    "region": "Ouest",
    "gps_lat": 5.81532,
    "gps_lon": 11.074452,
    "install_date": "22/11/2020",
    "tariff_plan": "Standard",
    "status": "active",
    "distributor_id": 19,
    "panel_capacity_wp": 500,
    "battery_capacity_wh": 600,
    "num_appliances": 18
  },
  {
    "installation_id": 229,
    "client_name": "TAGNE Marie-Claire",
    "client_type": "residential",
    "city": "Loum",
    "region": "Littoral",
    "gps_lat": 4.617016,
    "gps_lon": 9.687645,
    "install_date": "22-11-2023",
    "tariff_plan": "Custom",
    "status": "active",
    "distributor_id": 23,
    "panel_capacity_wp": 1000,
    "battery_capacity_wh": 400,
    "num_appliances": 2
  },
  {
    "installation_id": 230,
    "client_name": "Centre de Santé Communautaire de Edéa",
    "client_type": "health_center",
    "city": "Edéa",
    "region": "Littoral",
    "gps_lat": 3.824773,
    "gps_lon": 9.848721,
    "install_date": "2021-07-24",
    "tariff_plan": "Standard",
    "status": "active",
    "distributor_id": 7,
    "panel_capacity_wp": 200,
    "battery_capacity_wh": 4000,
    "num_appliances": 7
  },
  {
    "installation_id": 231,
    "client_name": "Brigitte ETOA",
    "client_type": "residential",
    "city": "Edéa",
    "region": "Littoral",
    "gps_lat": 4.300779,
    "gps_lon": 9.420304,
    "install_date": "2024-02-04",
    "tariff_plan": "Custom",
    "status": "active",
    "distributor_id": 36,
    "panel_capacity_wp": 1000,
    "battery_capacity_wh": 2000,
    "num_appliances": 14
  },
  {
    "installation_id": 232,
    "client_name": "gérard kamga",
    "client_type": "residential",
    "city": "Bamenda",
    "region": "Nord-Ouest",
    "gps_lat": 5.537681,
    "gps_lon": 9.467595,
    "install_date": "26-10-2023",
    "tariff_plan": "Custom",
    "status": "active",
    "distributor_id": 13,
    "panel_capacity_wp": 1000,
    "battery_capacity_wh": 400,
    "num_appliances": 5
  },
  {
    "installation_id": 233,
    "client_name": "emmanuel djomo",
    "client_type": "residential",
    "city": "Mbanga",
    "region": "Littoral",
    "gps_lat": 3.93942,
    "gps_lon": 9.297943,
    "install_date": "03-11-2021",
    "tariff_plan": "Basic",
    "status": "suspended",
    "distributor_id": 12,
    "panel_capacity_wp": 750,
    "battery_capacity_wh": 2000,
    "num_appliances": 14
  },
  {
    "installation_id": 234,
    "client_name": "MVONDO Entreprise",
    "client_type": "sme",
    "city": "Bafang",
    "region": "Ouest",
    "gps_lat": 4.728674,
    "gps_lon": 10.798243,
    "install_date": "2024-01-22",
    "tariff_plan": "Basic",
    "status": "active",
    "distributor_id": 8,
    "panel_capacity_wp": 1000,
    "battery_capacity_wh": 600,
    "num_appliances": 12
  },
  {
    "installation_id": 235,
    "client_name": "Adamou NGANOU",
    "client_type": "residential",
    "city": "Bafoussam",
    "region": "Ouest",
    "gps_lat": 5.606567,
    "gps_lon": 11.009234,
    "install_date": "2021/09/20",
    "tariff_plan": "Premium",
    "status": "suspended",
    "distributor_id": 16,
    "panel_capacity_wp": 750,
    "battery_capacity_wh": 2000,
    "num_appliances": 15
  },
  {
    "installation_id": 236,
    "client_name": "Francine ELLA",
    "client_type": "residential",
    "city": "Nkongsamba",
    "region": "Littoral",
    "gps_lat": 4.099871,
    "gps_lon": 10.398569,
    "install_date": "2021-08-21",
    "tariff_plan": "Basic",
    "status": "active",
    "distributor_id": 32,
    "panel_capacity_wp": 300,
    "battery_capacity_wh": 2000,
    "num_appliances": 3
  },
  {
    "installation_id": 237,
    "client_name": "FATOUMATA DJOMO",
    "client_type": "residential",
    "city": "Edéa",
    "region": "Littoral",
    "gps_lat": 3.75585,
    "gps_lon": 9.711576,
    "install_date": "28-10-2021",
    "tariff_plan": "Standard",
    "status": "churned",
    "distributor_id": 1,
    "panel_capacity_wp": 1000,
    "battery_capacity_wh": 2000,
    "num_appliances": 17
  },
  {
    "installation_id": 238,
    "client_name": "richard fotso",
    "client_type": "residential",
    "city": "Nkongsamba",
    "region": "Littoral",
    "gps_lat": 3.257904,
    "gps_lon": 10.422899,
    "install_date": "2022/01/15",
    "tariff_plan": "Custom",
    "status": "churned",
    "distributor_id": 6,
    "panel_capacity_wp": 200,
    "battery_capacity_wh": 2000,
    "num_appliances": 17
  },
  {
    "installation_id": 239,
    "client_name": "Centre de Santé Communautaire de Bafang",
    "client_type": "health_center",
    "city": "Bafang",
    "region": "Ouest",
    "gps_lat": 5.452155,
    "gps_lon": 10.686983,
    "install_date": "2021/02/18",
    "tariff_plan": "Standard",
    "status": "active",
    "distributor_id": 33,
    "panel_capacity_wp": 300,
    "battery_capacity_wh": 4000,
    "num_appliances": 3
  },
  {
    "installation_id": 240,
    "client_name": "LIONEL ATANGANA",
    "client_type": "residential",
    "city": "Loum",
    "region": "Littoral",
    "gps_lat": 3.572966,
    "gps_lon": 9.977492,
    "install_date": "12/10/2023",
    "tariff_plan": "Basic",
    "status": "active",
    "distributor_id": 35,
    "panel_capacity_wp": 300,
    "battery_capacity_wh": 1000,
    "num_appliances": 4
  },
  {
    "installation_id": 241,
    "client_name": "Estelle TCHUENKAM",
    "client_type": "residential",
    "city": "Yagoua",
    "region": "Extrême-Nord",
    "gps_lat": 12.089028,
    "gps_lon": 13.73344,
    "install_date": "2022-03-07",
    "tariff_plan": "Standard",
    "status": "active",
    "distributor_id": 8,
    "panel_capacity_wp": 750,
    "battery_capacity_wh": 600,
    "num_appliances": 8
  },
  {
    "installation_id": 242,
    "client_name": "ibrahim Boutique",
    "client_type": "sme",
    "city": "Kumbo",
    "region": "Nord-Ouest",
    "gps_lat": 5.95548,
    "gps_lon": 10.338556,
    "install_date": "2024/09/09",
    "tariff_plan": "Custom",
    "status": "active",
    "distributor_id": 4,
    "panel_capacity_wp": 750,
    "battery_capacity_wh": 1000,
    "num_appliances": 18
  },
  {
    "installation_id": 243,
    "client_name": "Brigitte ELLA",
    "client_type": "residential",
    "city": "Ngaoundéré",
    "region": "Adamaoua",
    "gps_lat": 7.633243,
    "gps_lon": 12.982421,
    "install_date": "31/08/2023",
    "tariff_plan": "Basic",
    "status": "churned",
    "distributor_id": 9,
    "panel_capacity_wp": 200,
    "battery_capacity_wh": 600,
    "num_appliances": 12
  },
  {
    "installation_id": 244,
    "client_name": "YONKEU Entreprise",
    "client_type": "sme",
    "city": "Nkongsamba",
    "region": "Littoral",
    "gps_lat": 3.420549,
    "gps_lon": 9.952552,
    "install_date": "2025/01/27",
    "tariff_plan": "Standard",
    "status": "active",
    "distributor_id": 26,
    "panel_capacity_wp": 1000,
    "battery_capacity_wh": 400,
    "num_appliances": 14
  },
  {
    "installation_id": 245,
    "client_name": "MVONDO Nathalie",
    "client_type": "residential",
    "city": "Mora",
    "region": "Extrême-Nord",
    "gps_lat": 12.093206,
    "gps_lon": 14.701817,
    "install_date": "21-04-2023",
    "tariff_plan": "Custom",
    "status": "active",
    "distributor_id": 18,
    "panel_capacity_wp": 1000,
    "battery_capacity_wh": 400,
    "num_appliances": 16
  },